가맹점명,소재지도로명주소,위도,경도,카테고리,메뉴
시바카야 라카세,서울특별시 마포구 독막로9길 3,37.54857675,126.9194179,이자카야,"라카세나베: 25,000원; 오뎅나베: 22,000원; 치킨난반: 13,000원; 야끼소바: 15,000원; 오코노미야키: 14,000원; 햄카츠: 12,000원; 타코야끼: 6,000원; 이소베아게: 8,000원; 사와: 일본맛 그대로 느낄수 있는 사와"
스키당,서울특별시 마포구 백범로20길 12,37.54642868,126.9439491,샤브샤브,"관서식 1인 스키야키: 일본 간사이 지방에서 시작된 요리로 자작하게 볶아 계란과 함께 먹는 일본식 불고기 입니다.; 일본식 1인 샤브샤브: 최상급 가쓰오브시로 감칠 맛을 낸 일본식 샤브샤브입니다. 2가지 스키당 소스가 제공됩니다.; 가라아게 (닭다리살 튀김): 일본 전통방식으로 튀긴 닭다리살 튀김 요리; 이까게소 (오징어다리튀김): 후추 전분에 오징어 다리를 튀긴 일본식 튀김 요리(와사비 마요와 제공 - 200g); 큐리 타다키: 일본식 새콤 달콤한 드레싱으로 오이를 무친 요리, 스키야키와 궁합이 좋은 메뉴; 양송이와 일본식 새우튀김: 양송이와 노바시 새우를 일본 방식으로 튀겨 스키당 특제 타르타르 소스와 함께 즐기는 요리; 매콤문어무침: 19,000원; 6종 하이볼: 6가지 맛의 하이볼 (진저에일, 자몽, 블루하와이안, 얼그레이, 유자, 청포도); 청포도 에이드: 스키당의 수제 에이드; 자몽 에이드: 스키당 수제 에이드; 레몬 에이드: 스키당 수제 에이드"
스타반점,서울특별시 마포구 월드컵로36길 52,37.5684546,126.9058078,중식당,스타탕수육: 연근.브로컬리.목이버섯등 건강한 식재료로 맛을 낸 스타반점 시그니처메뉴; 짜장면: 돼지고기와 양파만 넣고 볶은 성산동 최고의 짜장 탕수육과 환상의 조합; 해물짬뽕: 갖가지 해산물이 가득한 해물짬뽕 잊을 수 없는 시원한 국물맛; 차돌짬뽕: 우삼겹이 아닌 차돌박이만 넣은 진한 국물맛; 해물쟁반짜장: 짜장면 위에 갖가지 해산물과 채소를 볶아 푸짐하게 얹어낸 가성비 최고 메뉴; 칠리중새우: 새콤달콤매콤한 맛의 조화가 일품인 칠리중새우; 깐풍중새우: 알싸한 마늘향이 오동통한 중새우를 만나 입안에 가득 퍼지는 극강의 맛; 크림중새우: 아이들이 좋아하는 부드럽고 달콤한 크림소스맛을 볼 수 있는 새우요리; 사천탕수육: 사천지방 특유의 매콤한 탕수육; 낙지짬뽕: 낙지가 한마리 통째로 들어가 해산물 좋아하시는 고객님의 입맛을 사로 잡을 메뉴; 해물우동: 시원하고 담백한 국물이 일품 해물과 채소가 듬뿍듬뿍; 잡채밥: 오동통한 당면에 갖가지 재료가 어우러진 조화로운 맛 서울에서 최고라 자부하는 맛; 특밥: 특별한 밥!특밥!! 두반장소스가 첨가된 매콤한 해산물 덮밥; 새우볶음밥: 마늘쫑을 넣은 고소한 볶음밥 계란후라이를 올려 보기에도 좋고 맛도 좋은 메뉴; 양장피: 낙지가 통째로 한마리 딱~ 푸짐하고 깔끔하게 톡쏘는 양장피 술안주로 술술
스탠딩박스,서울특별시 마포구 동교로36길 7,37.56127563,126.9247131,이자카야,"우삼겹야끼소바: 스탠딩박스만의 특별한 소스로 만든 야끼소바; 오이무침: Best; 아사히 엑스트라 콜드 (프리미엄): 7,000원; 산토리 가쿠빈 하이볼: 7,000원; 스탠딩박스 오뎅: 12,000원; 아사히 아퀼라 엑스트라 콜드(흑맥주): 7,500원; 규스지: 8,500원; 물떡이: 3,000원; 수제 치킨 가라아게: 9,500원; 가지튀김: 가지와 고기의 조합; 스박샐러드: 11,000원; 스박카도: 9,000원; 감자사라다: 아삭한 야채와 달달한 감자가 만난 일본식 셀러드; 타코와사비: 9,500원; 닭껍질교자: 8,000원"
스테이(STAY),서울특별시 마포구 동교로 176,37.5561752,126.9216851,양식,"차돌샐러드파스타: 각종 채소에 우삼겹과 방울토마토, 수제 드레싱으로 만든 냉 파스타; 살치살스테이크: 육향이 가득하고 육즙이 터지는 살치살스테이크; 명란바질오일파스타: 바질페스토와 명란이 들어간 오일 파스타; 통베이컨로제리조또: 특제 로제 소스로 만든 통베이컨 로제 리조또; 쉬림프 로제 파스타: 새우와 특제 로제 소스로 만든 파스타; 큐브스테이크 시저 샐러드: 당일 작업한 신선한 채소에 부채살 160g과 양파슬라이스, 베이컨 칩이 올라간 시저 샐러드; 쉬림프 바질 크림 리조또: 새우와 바질 페스토가 들어간 크림 리조또; 차돌미소크림파스타: 미소 된장과 차돌이 들어간 크림 파스타; 페퍼로니피자: 페퍼로니를 올린 페스츄리 피자; 수제등심돈까스: 국내산 돼지고기 등심으로 만든 수제 돈까스; 포테이토골드피자: 웨지 감자와 나쵸가 올라간 페스츄리 피자; 트리플치즈피자: 체다치즈, 고르곤졸라, 모짜렐라 치즈를 넣은 페스츄리 피자; 해물 오징어 먹물 리조또: 새우, 오징어, 그린홍합이 들어간 오징어 먹물 리조또; 해물오일파스타: 그린홍합, 새우, 오징어가 들어간 매콤한 오일파스타; 새우베이컨토마토파스타: 수제 토마토 소스로 만든 파스타"
스테이크 슈퍼,서울특별시 마포구 독막로7길 62,37.55044175,126.920387,양식,"패밀리Set: 부채살300g+토시살300g+살치살300g+등심300g 베스트메뉴4가지-총1.2kg!!; 부채살 스테이크: 가성비 최고!! 터지는 육즙!! 미국산 부채살입니다.; 토시살스테이크: 소고기에서 가장 부드러운 토시살을 제대로 구워냈습니다.; 살치살스테이크: 등심에서 분리한 살코기로 적절한 기름기와 조화가 일품; 등심스테이크: 등심을 습식숙성하여 부드럽고 풍부한 육즙을 머금은 스테이크로 구워냈습니다.; 바베큐립: 엄선한 갈비부위를 특제 양념으로 맛을 내고 그릴에서 불맛을 입힌 오리지널 백립입니다.; 연어샐러드: 건강한 훈제연어,매일 아침 손질한 신선한 채소를 키유스테이크만의 소스와 즐겨보세요.; 토마호크스테이크: 꽃등심+새우살+갈비살 3가지 부위를 동시에 맛볼수 있는 토마호크스테이크; 메이슨자 샐러드(80g): 8,000원; 하몽샐러드: 인고의 시간을 견뎌낸 생햄,하몽을 신선한 채소와 함께 즐겨보세요; 볼로네제 스파게티: 바질의 풍미가 은은하게 느껴지며 미트소스와 토핑이 듬뿍 들어있는 볼로네제 스파게티를 즐겨보세요!; 감자튀김: 케찹 없이도 맛있는 웨지감자튀김! 아이들 간식,맥주안주로 모두 좋습니다.; 핫윙: 10,000원; 갈릭크림바게트볼: 마늘의 달콤함과 버터의 고소함이 만드는 담백한 조합"
스테이크바이앵거스,서울특별시 마포구 토정로 320,37.53935548,126.9439469,"스테이크,립","블랙앵거스 채끝등심스테이크: 블랙앵거스꽃등심스테이크는 스테이크부위중 가장 마블링이 좋고 담백함과 부드러움을 가지고있다; 마레비안코 오일파스타: 모시,바지락, 홍합,갑오징어,새우,표고,송이,브로콜리, 엑스트라버진 올리브와 트러플오일로 맛을 더한 해산물 오일파스타; 앵거스 스페셜 세트 A (2 인 기준): 스페셜 세트A ( 2인기준) 식전빵과 샐러드 - 안심과 등심 +디져트or커피 = 10%"
스텐다드블랙,서울특별시 마포구 망원로3길 35-1,37.55818846,126.9005929,양식,"페페로니 라자냐: 푸짐한 라구소스와 2가지 치즈를 아낌없이 넣어만들 베셔멜소스, 쫄깃한 미니페페로니의 조화; 이베리코 플루마 스테이크: 최고등급의 베요타중에서도 가징맛있는 삼각살!!!훈연향, 포트와인소스; 전복타코: 싱싱한활전복으로 만든 타코, 상상할수 없는맛!!!; 굴 그라탱: 싱싱한 굴의 육즙이 꼬득한 화이트소스, 바삭한 크럼블과함께 입안가득; 샤넬꽃 버터&빵: S:24000 L 30000 스블의 시그니쳐!!! 화려한 샤넬 꽃밭"
스트로베리32(Strawberry32),서울특별시 마포구 연남로5길 6-6,37.56251478,126.921277,베이커리,딸기케이크 1호(12월13일부터): 32개의 딸기가 들어간 1호사이즈 홀케이크입니다.; 딸기케이크 미니(12월13일부터): 딸기케이크 미니사이즈입니다(가로 세로 12cm); 망고케이크 1호: 생망고와 동물성 생크림으로 만든 홀케이크입니다. (여름~가을 시즌메뉴); 망고케이크 미니: 망고케이크 미니사이즈입니다(가로 세로 12cm)
스파다,서울특별시 마포구 잔다리로 109,37.55666436,126.914095,이탈리아음식,"Bread: 매일 아침 직접 구운 무화과 사워도우 빵, 잠봉 햄, 버터; Polpo tartar: 참문어, 알감자, 이베리코 초리조, 올리브 크래커; Beef carpaccio: 한우 1++ 홍두깨, 와일드 루꼴라, 아이올리 소스; Melanzane: 그릴에 구운 가지, 시금치 리코타 치즈, 토마토 소스; Salsiccia: 이베리코 소세지, 매쉬 포테이토, 초리조 오일, 선드라이 토마토; Capesante: 오븐에 구운 가리비, 빵가루, 선드라이 토마토, 레몬 드레싱; Insalata di mela: 홍로 사과, 와일드 루꼴라, 고트치즈, 잠봉, 머랭 마카다미아, 비네거 드레싱; Gnocchi: 팬에 구운 감자 뇨끼, 트러플 크림 소스; Calabrese: 깐놀리키 숏면, 이탈리안 소세지, 4가지 버섯, 토마토 소스, 바질, 페페론치노; Special pasta: 변동되는 생면파스타; Vongole: 스파게티, 바지락, 모레스카 올리브 오일, 이탈리안 파슬리, 바질, 애호박; Controfilleto (150g): 웻 에이징 암소 한우 1++ 채끝 등심 스테이크; Controfilleto (200g): 웻 에이징 암소 한우 1++ 채끝 등심 스테이크; Semifreddo: '반쯤 차가운' 이라는 뜻의 이탈리안 스타일의 아이스크림"
스푼,서울특별시 마포구 양화로6길 57-12,37.54906698,126.9178491,이탈리아음식,"계란 소스 까르보나라: 수제 베이컨과 양젖치즈로 맛을 내고 계란소스를 입힌 파스타; 중화 두반장 페투치니: 고소한 소젖치즈 두반장소스의 감칠맛 위에 예쁘게 삶은 수란을 올려 맵싹하게 즐기는 파스타; 로제 라구 뇨끼: 몽근하게 끓어낸 라구소스에 크림을 넣어 고소한 풍미를 가득 느낄 수 있는 로제라구뇨끼; 페코리노 리가토니: 양젖치즈로 맛을 낸 크림파스타위에 프로슈토와 루꼴라 토핑을 올린 숏파스타; 고르곤졸라 크림 뇨끼: 고르곤졸라의 고소한 맛과 향 그리고 팬에 구워 쫄깃하고 부드러운 식감의 뇨끼가 일품인요리; 브레드&풀드포크: 바베큐소스로 몽근하게 졸인 돼지고기와 빵을 함께 곁들어 이상적인 궁합의 브레드&풀드포크; 통베이컨 스테이크: 통베이컨 하나를 통째로 익혀 베이컨특유의 맛과 향을 살리고 가니쉬를 더해 선사합니다.; 하와이안 블루 레몬 에이드: 블루레몬만의 상큼한 향과 탄산수를 더해 청량감까지 같이 즐길 수 있는 새콤상콤한 에이드; 자몽 에이드: 쌉싸름한 자몽향 뒤에 달작지근하게 올라오는 맛, 탄산수의 청량감을 같이 즐겨보세요; 청포도 에이드: 청포도의 새콤달콤함과 기분 좋은 포도향 그리고 탄산의 청량감을 여유롭게 즐겨보세요"
스프링 비스트로,서울특별시 마포구 양화로1길 25,37.54984525,126.9103687,이탈리아음식,"클레식 라구 파스타: 소 아롱사태 부위를 장시간 끊인 이태리 시골풍의 토마토 라구 소스와 진한 치즈향이 어우러진 파스타; 스프링 치킨 라이스: 20여가지의 시즈닝으로 숙성한 치킨 오븐구이와 팬프라이한 라이스; 명란알리오올리오: 장인이 만든 명품 명란과 마늘,청양고추가 들어간 알싸한 맛의 오일 파스타; 딱새우로제파스타: 제주산 딱새우살이 가득 들어간 새우 향의 로제 크림파스타; 고등어파스타: 부산에서 직접 올라오는 제철 고등어와 마늘 케이퍼가 들어간 오일 파스타; 하우스 샐러드: 신선한 샐러드와 프렌치드레싱,그라노파다노 치즈; 떡갈비라이스: 100%소고기,쌀떡,특제 간장소스로만든 떡갈비와 팬프라이한 라이스; 햄&치즈피자: 양질의 파마산치즈,계란,버섯,트러플오일; 쉬림프&바질: 향긋한 바질과 견과류로 만든 페스트와 탱탱한 새우 보리치즈; 채끝스테이크: 최상급 국내산 육우 채끝 스테이크와 구운 야채, 씨겨자."
스프링(SPRING),서울특별시 마포구 성미산로 198,37.56237555,126.9267686,"다이어트,샐러드","우삼겹 두부면 파스타: 12,500원; 연어 포케: 12,500원; 연어김밥: 10,500원; 크래미유부말이: 11,500원; 마녀스프: 5,500원; 바나나푸딩: 3,800원; 스프링어텀 샐러드: 7,500원; 닭가슴살 한식샐러드: 12,000원; 훈제오리한식샐러드: 12,500원; 떡갈비 한식샐러드: 12,500원; 두부 머쉬룸 샐러드: 11,500원; 새우 연두부 샐러드: 12,000원; 새우 파스타 샐러드: 12,000원; 계란김밥: 7,000원; 닭가슴살김밥: 7,500원"
스시앤(마포),서울특별시 마포구 동교로 148,37.55526335,126.9185293,"초밥,롤","오늘의초밥: 모듬초밥11P, 반우동, 감자고로케; 정식A세트: 초밥6P,사시미6P,육회,육회군함,반우동,튀김; 정식B세트: 초밥8P,사시미8P,육회,육회군함,반우동,감자고로케; 채소 불초밥: 30% 할인(5월 31일까지) 채소불초밥12p + 우동 + 감자고로케; 런치초밥: 10,000원; 런치스페셜: 15,000원; 특선모듬초밥: 모듬초밥15P, 반우동, 감자고로케; 활어모듬초밥: 활어초밥 10P, 반우동, 감자고로케; FRESH & GARLIC: 활어5P,갈릭5P, 반우동, 감자고로케; 그릴모듬초밥: 그릴모듬초밥12P, 반우동, 감자고로케; 나만의초밥A: 내가 원하는 초밥을 내맘대로 !! 총 12P를 마음껏 즐기세요; 나만의초밥B: 21,000원; 나만의초밥C: 25,000원; 모듬사시미: 42,000원; 광어사시미: 1인분"
스시윤,서울특별시 마포구 월드컵북로48길 24,37.57697671,126.8949735,일식당,"런치 카운터: 66,000원; 런치 룸: 55,000원; 디너 카운터: 130,000원; 디너 카운터 스페셜: 160,000원; 디너 룸: 100,000원; 디너 룸 스페셜: 130,000원"
스시코미치,서울특별시 마포구 동교로27길 3-14,37.55807528,126.9225519,일식당,"스페셜초밥14p+서비스1p+미니우동(15p): 연어3활어2묵은지1엔가와1장새우1대하생새우1크림불새우1와규불1민물장어1양념역돔1타코와사비1랜덤1; 생연어초밥+미니우동(10p): 19,000원; 생연어초밥+미니우동(12p): 22,000원; 믹스동(튀김덮밥 1등 대표메뉴+인기메뉴)말해뭐해요: 등심돈까스+가라아게+왕새우튀김; 사케동(특제양념밥+노르웨이산 특대 사이즈생연어): 양념밥위에 노르뤠이 생연어가 올라간 덮밥."
스시가마시,서울특별시 마포구 독막로 96,37.54754697,126.9240726,"초밥,롤","런치 스시세트: 초밥10P+샐러드+미소장국+튀김+면; 런치 돈까스세트: 초밥2P+샐러드+미소장국+돈까스+면; 모둠세트: 초밥12P+샐러드+남방스게+자왈무시+튀김+면+후식(과일); 스페셜세트: 초밥12P+샐러드+자왈무시+왕새우+남방스게+튀김+면+후식(과일); 특선B: 사시미5P+초밥14P +자왈무시+샐러드+튀김+면+후식; VIP특선: 사시미+초밥+생선조림+자왈무시+왕새우+튀김+면+후식; 커플세트: 46,000원; 카이센동: 18,000원; 혼사시미: 23,000원; 모듬사시미(중): 47,000원"
스시겐,서울특별시 마포구 양화로7길 6-12,37.55163272,126.9156392,"초밥,롤","정식코스 낮: 40,000원; 정식코스 저녁: 60,000~120,000원; 특 꽃초밥: 39,000원; 모듬초밥: 29,000원; 연어꽃초밥: 28,000원"
스시경,서울특별시 마포구 잔다리로 113,37.55707608,126.9137948,"초밥,롤","연어초밥(10p): 스시경만에 숙성방법으로 살살녹는듯한 맛을 선보입니다 (포장시 미니모밀대신 초밥1p더드려요); 특모듬초밥12p: 광어2연어2묵은지광어1참치2가리비1장어1생새우1간장새우1한치1(포장시미니모밀대신초밥2p더); 모듬회: 기본 광어연어참치3종에 당일시장상황에따라2~3종추가되는사시미에(연어날치알쌈+연어구이); 모듬초밥12p: 광어2연어1참치2생새우1찐새우2문어1한치1유부1계란1(포장시미니모밀대신초밥1p추가); 스폐셜모듬초밥12p: 가장좋은재료추천으로구성 오도로 와규 성게알 연어배꼽 네기도로등.(포장시미니모밀대신2p추가); 참다랑어초밥12p: 참다랑어 아카미 오도로 다진도로(네기도로)구성 포장시미니모밀대신스시2p써비스; 참다랑어사시미(16p): 52,000원; 광어+연어: 45,000원; 배꼽살(12p): 59,000원; 연어회: 42,000원; 광어회: 49,000원; 대뱃살(12p): 55,000원; 연어덮밥: 18,000원; 통간장새우5마리: 7,000원; 통간장새우15마리: 18,000원"
스시금강,서울특별시 마포구 양화로 72,37.55076702,126.9167163,일식당,"런치 닷찌 오마카세: 2023년2월부터 66,000원으러 인상됩니다; 디너 닷찌 오마카세: 130,000원; 런치 룸스시코스: 2023년2월부터 55,000원으로 인상됩니다; 디너 룸스시코스: 2023년2월부터 10만원 스시코스/13만원사시미코스중에 선택가능합니다; 디너 룸 사시미 코스: 스시는 나오지않습니다."
스시나마,서울특별시 마포구 망원로10길 6,37.5574428,126.906659,"초밥,롤","회덮밥: 8,000원; 우동: 6,000원; 청하: 6,000원; 맥주: 5,000원; 김치우동: 5,500원; 모든접시초밥: 1,500원"
스시노칸도,서울특별시 마포구 잔다리로6길 30,37.552221,126.920848,"초밥,롤","모든초밥 균일가: 2,200원; 광어회20p: 22,000원; 연어회20p: 22,000원; 참치회20p: 40,000원; 모듬회20p: 36,000원; 미니우동: 3,500원"
스시다이,서울특별시 마포구 월드컵북로 352-14,37.57749236,126.8932677,"초밥,롤","사시미정식(1인): 인당(사시미+초밥3pc+수제 왕새우튀김+계절면) 회식or모임각!!; 특모듬초밥(12pc): 기본 생선초밥과 민물장어 전복 참치뱃살 성게알,연어알등 고급재료만 구성되어 있습니다; 초밥세트(2인): 2인기준:초밥22pc+수제새우튀김2pc+계절면×2 1인:19000원(포장시 면>초밥1pc); 냉모밀: 살얼음 동동 냉모밀개시!!! 가격인상 없이 돌아왔습니다; 대방어세트: 대방어사시미,회무침,계절면(포장시 계절면 대신 초밥2pc); 시메사바: 사바 기름이 맛있게 올랐습니다 초밥과 사시미로 내어드립니다; 우니한판: 신선하고 녹진한 우니를 김에 오이와 싸드시는 음식 (단새우추가+10000); 치즈도후: 치즈와 두부의 콜라보!! 단짠단짠!!(소주,화요같은 독주나 하이볼 안주로 추천); 후토마끼(일본식 회김밥): 5p15000원 10p25000원(디너만가능); 짬뽕세트(2인): 2인기준:모듬초밥×2+나가사키짬뽕+고로케 (포장불가); 연어사시미(22pc): 매일 손질하는 싱싱한 노르웨이산 연어를 부족함없이 두툼하게 썰어드립니다; 광어초밥 10pc: 25,000원; 광어+연어초밥 10pc: 25,000원; 생연어 초밥 10pc: 24,000원; 광어+소고기 초밥 10pc: 19,000원"
스시마루,서울특별시 마포구 마포대로4길 29-6,37.53822882,126.9469387,"초밥,롤","스페셜초밥: 광어,연어,도미,숭어,농어,간장새우,초새우 그날그날 잡은 활어가 나옵니다; 모듬초밥: 광어,연어,도미 새우,소라,한치,가리비; 마루특초밥: 활어,연어,참치,장어,초새우; 광어초밥: 광어로만 즐기는 싱싱 활어 초밥; 연어초밥: 18,000원; 냉모밀셋트: 시원한 냉모밀과 활어초밥4pcs; 냉모밀: 얼음동동 냉모밀; 새우튀김우동: 쫄깃한운동에 고소한튀김새우~; 돈까스: 9,000원; 회덮밥: 9,000원; 모듬사시미: 싱싱한 활어와 연어 참치 로 즐기는 2~3인 사시미 메뉴입니다; 모듬 특 사시미: 싱싱한 활어와 연어 참치 로 즐기는 4인 사시미 메뉴입니다; 새우튀김(12pcs): 12,000원; 시사모 구이(12pcs): 알이 꽉차고~고소한 사이드안주 열빙어 구이입니다; 연어 배꼽살 구이: 간단한 사이드 술안주로 좋은~ 고소하고 부드러운~ 연어배꼽구이 입니다"
스시모리지,서울특별시 마포구 광성로6길 54,37.54770596,126.9396761,"초밥,롤","평일 런치 오마카세: 4인 이상 예약시 원하시면 저녁 코스와 동일하게 진행해드립니다. 요청사항에 적어주세요!; 주말 런치 오마카세: 숲길 속 주말에 즐기는 스시오마카세; 평일[일~목] 디너 오마카세: 일요일부터 목요일까지 저녁에 준비되는 스시오마카세; 금/토 스페셜 디너 오마카세: 금,토 저녁에 준비되는 특별한 스시오마카세"
스시복,서울특별시 마포구 마포대로12길 34,37.54751523,126.9546847,일식당,"사시미모리아와세 2인: 스시복의 시그니처 매일 준비되는 신선한 제철 재료로 구성된 모둠 숙성회; 스페셜스시 12p: 흰살 오징어 새우 연어 참다랑어뱃살&속살 계절생선 안키모유부 장어 마끼; 런치A세트 (2인이상): 차완무시, 마구로타르타르, 사시미5p, 초밥6p, 새우튀김, 우동; 특선스시 10p: 흰살 날개오징어 새우 연어 참다랑어속살 마끼 안키모유부; 프리미엄스시 15p: 흰살 날개오징어 가리비관자 새우 연어 아카미 오토로 계절생선 마끼 안키모유부 장어; 후토마끼: 18,000원; 도미머리조림: 25,000원; 도미머리구이: 22,000원; 메로구이: 25,000원; 연어사시미: 35,000원; 전복내장파스타: 25,000원; 치킨난반: 치킨가라아게와 난반소스; 연어스시 10p: 20,000원; 마구로마끼: 참다랑어(혼마구로)뱃살, 속살로 만든 레알 참치김밥; 사바보우즈시 (고등어봉초밥): 한정메뉴"
스마일,서울특별시 마포구 월드컵로 235,37.56519693,126.8984865,떡볶이,"즉석떡볶이: 4,500원; 치즈볶음밥: 3,500원; 기본볶음밥: 2,500원; 라면사리: 2,000원; 쫄면사리: 2,000원; 라쫄사리: 2,000원; 오뎅사리: 2,000원; 야채사리: 2,000원; 떡사리: 3,000원; 치즈사리: 3,000원; 야끼만두: 800원; 김말이: 800원; 삶은계란: 800원; 냄비오뎅: 3,000원; 냄비라면: 4,500원"
스마일 꽈배기,서울특별시 마포구 숭문길 10,37.54691201,126.9456059,베이커리,"꽈배기 3개: 2,500원; 도너츠 1개: 1,000원; 공룡알 3개: 2,500원; 감자고로케: 2,000원; 핫도그 1개: 2,000원; 치즈볼 3개: 2,500원"
스마일꽈배기,서울특별시 마포구 서강로 95,37.55204386,126.9321001,스마일명품찹쌀꽈배기,"찹쌀 꽈배기 3개: 2,500원; 찹쌀 도너츠 3개: 2,500원; 찹쌀 팥씨앗도너츠 1개: 1,500원; 찹쌀 핫도그 1개: 1,500원; 찹쌀 햄야채빵: 3,000원"
스마일찹쌀꽈배기,서울특별시 마포구 월드컵북로 224,37.56980492,126.904699,스마일명품찹쌀꽈배기,"꽈배기(3개): 2,000원; 찰도너츠(3개): 2,000원; 팥도너츠: 1,000원; 핫도그: 1,500원; 크림치즈도넛: 1,500원"
스매쉬보이,서울특별시 마포구 와우산로15길 37,37.54899207,126.9214829,햄버거,"스매쉬버거: 8,500원; 칠리스매쉬버거: 8,000원; 캘리포니아클래식: "
스몰럭（smallucke）,서울특별시 마포구 잔다리로 130,37.55839513,126.9131984,"카페,디저트","꿀토마토 소르베: 6,000원; 크림라떼: 6,000원; 코코넛 아포가토: 7,000원; 복숭아얼그레이 티에이드: 6,500원; 레몬라즈베리 에이드: 7,000원"
스몰베트남,서울특별시 마포구 포은로 88,37.55489017,126.9053947,베트남음식,"분짜: 12,000원; 스프링롤: 7,000원; 양지쌀국수: 9,000원; 수제 새우딤섬: 7,000원"
순정식당,서울특별시 마포구 독막로 188,37.54725425,126.9345334,한식,"한우안심철판구이: 35,000원; 한우수육(중): 일품메뉴; 한우수육(대): 일품메뉴; 수육고기추가: 20,000원; 맑은한우국밥: 12,000원; 맑은한우국밥(특): 15,000원; 얼큰한우국밥: 12,000원; 얼큰한우국밥(특): 15,000원"
숯닭,서울특별시 마포구 월드컵로 37,37.55246089,126.9116322,닭갈비,"숯불닭갈비(궁중맛,양념맛): 13,000원; 매운닭발: 13,000원; 껍데기: 7,000원; 감자전: 12,000원; 김치전: 10,000원; (식사메뉴) 비지찌개: 8,000원; (식사메뉴) 김치찌개: 8,000원; (식사메뉴) 된장찌개: 8,000원; (사이드메뉴) 묵사발: 5,000원; (사이드메뉴) 주먹밥: 3,000원; (사이드메뉴) 계란찜: 5,000원"
숯돌이네돼지,서울특별시 마포구 월드컵로36길 40,37.5677809,126.9050592,돼지고기구이,"양념갈비: 16,000원; 삼겹살: 15,000원; 목살: 15,000원; 막창: 13,000원; 껍데기: 7,000원"
숯불설레임,서울특별시 마포구 포은로 75,37.55384657,126.9055684,"육류,고기요리","👍숯불 소갈비살 170g: 작업후 숙성하여 특제소스를 더하다; 김치양푼칼국수(베스트 사이드): 숯불설레임의 시그니처 볶음밥은 NO; 👍설레임 삼겹살 180g: 9,500원; 👍파워 양념갈비 220g: 12,500원; 👍파이팅 목살 180g: 9,500원; 👍초이스 우삼겹 170g: 단골손님들의 요청으로 숯불불고기 탄생 우삼겹에 특제 소스을 더하다; 망원동 껍데기 160g: 추가주문 가능합니다; 버섯구이: 3,500원; 냉면(물/비빔): 5,500원; 계란찜: 3,500원; 된장찌개: 3,000원; 공기밥: 공기밥 소진시 햇반 제공"
숲길해장,서울특별시 마포구 대흥로 80-14,37.5469408,126.9417691,해장국,"해장국: 11,000원; 내장탕: 13,000원; 수육: 34,000원; 해장전골: 29,000원; 내장전골: 34,000원"
쉐시몽,서울특별시 마포구 월드컵로10길 48,37.55527799,126.9142283,프랑스음식,"런치: 70,000원; 디너: 98,000원"
"쉐프, 장 과자점",서울특별시 마포구 토정로 219,37.54500867,126.9353122,베이커리,"쌀카스테라: 3,000원; 크림치즈페스트리: 3,500원; 또띠아: 3,000원"
쉐프수,서울특별시 마포구 동교로 262-8,37.56276044,126.9254954,패밀리레스토랑,안심 스테이크: Tenderloin steak (180g); 대구 스테이크: 오직 쉐프수에서만 맛볼 수 있는 시그니처 스테이크; 채끝 스테이크 파스타(소스 택1): Sirloin Steak Pasta(Tomato/Olio/Cream); 티본 스테이크 세트 (2인): T-bone steak(700g) +에피타이저+파스타 1종 + 하우스와인 or 에이드 2잔; 이베리코 목살 스테이크: Iberico Pork Steak (180g); 목살 스테이크: Grilled pork steak (180g); 함박 스테이크: Hamburger steak(200g); 부채살 스테이크: Top Blade Steak (200g); 채끝 스테이크: Sirloin Steak (180g); 양갈비 스테이크: Lamb Rib steak (250g); 꽃등심 스테이크: Ribeye steak; ===Pasta&Rissoto===: 무료; 아라비아따 토마토 파스타: Arrabbiata tomato pasta; 알리오 올리오: Aglio e Olio e pasta; 크림 파스타: Cream pasta
수유리우동집아현집,서울특별시 마포구 굴레방로 29-1,37.55669491,126.9554847,"우동,소바","우동: 우동 김밥 비빔국수 열무국수 쫄면 등 모든 메뉴 포장 가능; 들깨수제비: 9,000원; 치즈김밥: 변동; 참치김밥: 4,500원; 스팸김밥: 4,500원; 갈비만두: 4,500원"
수저가,서울특별시 마포구 마포대로16길 8,37.55078299,126.956382,중식당,"수저가짬뽕: 8,000원; 고기짬뽕: 10,000원; 옛날짜장면: 6,000원; 음료수: 1,500원"
수제왕돈까스-한식,서울특별시 마포구 토정로37길 46,37.54255684,126.947388,한식,"수제왕돈까스: 8,000원; 제육볶음: 7,000원; 얼큰소고기국: 8,000원; 부대찌개: 7,000원; 김치찌개: 7,000원; 오징어볶음: 7,000원; 불고기뚝배기: 8,000원"
수타면남강,서울특별시 마포구 매봉산로2안길 22,37.57750147,126.8942412,중식당,"짜장면: 8,500원; 짬뽕: 10,000원"
수퍼(SOUPER),서울특별시 마포구 삼개로 20,37.53851063,126.9472177,양식,"초리조 라자냐 수프: 매콤한 초리조를 베이스로 수프화 시킨 라자냐; 뉴잉글랜드 클램차우더: 뭉근하게 끓여낸 감자와 조갯살로 마무리한 차우더 수프; 미네스트로네&달래쿠스쿠스 *비건: 토마토 야채 수프와 향긋한 달래 쿠스쿠스가 올라간 비건 수프; 닭고기 야채 수프: 푹 익혀 우러나온 닭육수의 깊은 맛이 일품인 영혼의 닭고기 수프; 토마토 바질 크림: 토마토와 바질의 풍미가 조화로운 로제 수프; 송이송이 트러플 비스크: 목넘김이 부드러운 트러플 향 가득한 양송이 수프; 칠리 콘 카르네: 식감이 다채로운 묵직한 소고기 토마토 스튜; 베이컨 가지 샌드위치: 토마토 소스, 홀그레인 소스, 파마산, 베이컨, 가지, 루꼴라, 어린잎; 클래식 프로슈토 샌드위치: 피넛 소스, 스파이시 소스, 프로슈토, 썬드라이 토마토, 모짜렐라 치즈, 루꼴라, 어린잎; 그릴드 베지 & 리코타 샌드위치: 허니 마요, 발사믹 글레이즈, 토마토, 가지, 리코타 치즈, 말돈 소금, 바질 *베지테리안; 프레시 이탈리안 샌드위치: 허니마요, 이탈리안소스, 살라미, 스위스치즈, 토마토, 로스트파프리카, 루꼴라, 어린잎; 블루베리 요거트 그라놀라: 블루베리 콩포트와 홈메이드 그라놀라가 올라간 수제 요거트; 무화과 판나코타 (우유푸딩): 구운 무화과가 올라간 우유푸딩"
숙련도,서울특별시 마포구 도화길 49,37.54202121,126.9508839,"육류,고기요리","제주숙성오겹살: 18,000원; 제주숙성 목살: 18,000원; 제주숙성 가브리살: 19,000원; 제주숙성 항정살: 21,000원; 모듬야채구이: 11,000원; 굴보쌈추가: 15,000원; 제주산 돼지김치찌개: 8,000원; 백태콩 된장찌개: 8,000원; 꽃멸젓 볶음밥: 8,000원"
순남시래기메세나폴리스점,서울특별시 마포구 양화로 45,37.55150012,126.9139548,"백반,가정식","3대시래기국: 9,000원; 도마수육정식: 12,000원; 얼큰시래기국: 9,000원; 씨앗된장시래기밥: 10,000원; 쑥떡떡갈비정식: 12,000원; 도마수육: 19,000원; 오징어제육볶음: 19,000원; 도토리해물파전: 18,000원; 촌두부김치: 15,000원; 얼큰순두부찌개: 15,000원; 낮술한잔: 1,000원; 하우스막걸리: 4,000원; 유자탱탱막걸리: 6,000원; 노을구름막걸리: 6,000원"
순대일번지,서울특별시 마포구 월드컵로 117,37.55866667,126.9074674,"순대,순댓국","순대국(특): 11,000원; 순대국: 10,000원; 술국: 19,000원; 곱창순대: 19,000원; 모듬고기(특): 33,000원; 모듬고기: 28,000원"
순이네칼국수,서울특별시 마포구 대흥로 114-1,37.54967041,126.9437224,"칼국수,만두","김치찌개: 8,000원; 청국장: 8,000원; 동태탕: 8,000원; 바지락칼국수: 8,000원; 수제비: 8,000원; 콩국수: 8,000원; 칼제비: 8,000원; 들깨칼국수: 8,000원; 들깨수제비: 8,000원; 육개장칼국수: 8,000원"
송백,서울특별시 마포구 마포대로 196,37.55134888,126.9561817,"찌개,전골","송백부대찌개(밥.라면 무한리필): 10,000원; 옛날계란말이: 맛과 사이즈 모두 짱!; 모듬철판구이: 스테이크(300g)....30,000 햄,소세지,베이컨...각8,000"
송이네,서울특별시 마포구 포은로8길 21,37.55664287,126.9059011,종합분식,"알찬야채김밥: 기본김밥 재료가 8가지가 들어가요 :); 오징어튀김김밥: 느끼함을 잡아줄 매운멸치가 함께들어가 있어요!; 대파된장김밥: 서민갑부에 나온 그 김밥; 왕오징어 1개: 1,500원; 떡볶이: 옛날에 먹던 학교앞 떡볶이맛; 수제튀김 4개: 4,000원; 찰순대: 5,000원; 어묵3꼬치: 2,500원; 마요참치김밥: 4,500원; 된장대파김밥: 4,500원; 알찬꼬마 김밥(4개): 3,500원; 고소치즈 김밥: 4,000원; 아삭이 고추 김밥: 4,500원; 매운멸치 김밥: 4,500원; 아삭이고추김밥: 4,500원"
송추가마골 인 어반,서울특별시 마포구 성암로 267,37.58112013,126.8909837,"육류,고기요리","가마골갈비 런치정식(평일): 가마골갈비 3대, 각종찬, 쌈야채, 냉면 or 된장찌개& 솥밥 제공 ( 2인분이상주문); 한돈명품구이: 27,000원; 송추갈비: 41,000원; CAB 우대本갈비: 프리미엄 소고기의 선두주차 CAB원료육을 사용해, 육즙이 풍부한 양념갈비(2인분씩 주문); CAB설화갈비살: 쫄깃한 식감과 풍부한 육즙, 깊은 감칠맛이 살아있는 즉석양념 갈비살; 갈비탕: 15,000원; 본갈비탕: 깊고 진하게 우려낸 육수와 LA갈비식컷팅으로 한 입에 편하게 즐길 수 있는 갈비탕; 냉면(물/비빔): 오랜 전통방식 그대로 담백하고 깔끔한 맛이 일품인 시그니처 냉면; 프리미엄 설등심(새우살 포함): 풍부한 마블링의 최상급 투뿔한우 알등심과 새우살을 함께 즐길 수 있는 프리미엄 메뉴; 한우안심: 지방이 적어 육질이 부드럽고 담백한안심; 소왕갈비: 살이 연하고 부드러운 최고급 왕갈비"
송추가마골마포지점,서울특별시 마포구 독막로 311,37.54399651,126.9474812,"육류,고기요리","가마골갈비 런치정식(평일): 가마골 양념소갈비와 된장찌개 & 솥밥 또는 냉면(비빔냉면)을 함께 즐기는 가성비메뉴; 갈비탕: 오랜시간 소갈비를 푹 꿇여내 깊고 진한맛이 일품인 송추가마골 정통갈비탕; CAB 우대本갈비: 프리미엄 소고기의 선두주차 CAB원료육을 사용해, 육즙이 풍부한 양념갈비(2인분씩 주문); 송추갈비: 송추가마골 인어반 대표 양념갈비 메뉴; 냉면(물/비빔): 오랜 전통방식 그대로 담백하고 깔끔한 맛이 일품인 시그니처 냉면; CAB설화갈비살: 쫄깃한 식감과 풍부한 육즙, 깊은 감칠맛이 살아있는 즉석양념 갈비살; 한우채끝등심: 하얀 눈꽃같은 마블링이 꼭꼭 박혀있어, 육즙의 맛이 일품인 숙성한우등심; 한돈명품구이(돼지): 도톰한 육질에 정통갈비양념으로 달콤함이 일품인 대표 돼지구이 메뉴; 가마골 곰탕: 부드럽고 담백한 곰탕육수에 푸짐한 곰탕육수가 들어간 맑은 곰탕; 본갈비탕: 깊고 진하게 우려낸 육수와 LA갈비식컷팅으로 한 입에 편하게 즐길 수 있는 갈비탕; 한우 안심: 지방이 적어 육질이 부드럽고 담백한 한우안심; 소왕갈비: 52,000원; 늘품구이: 26,000원; 한우육회&육사시미: 오랜비법인 특제소스를 더해 특유의 풍미와 감칠맛을 느낄 수 있는 한우육회&육사시미; 매콤갈비찜 뚝배기: 16,000원"
송탄부대찌개,서울특별시 마포구 월드컵북로42다길 28,37.57622965,126.8969883,"찌개,전골","부대찌개: 9,000원; 특 부대찌개: 11,000원"
솥돼가,서울특별시 마포구 굴레방로9길 35,37.5566785,126.9536288,"육류,고기요리","삼겹살: 15,000원; 차돌박이: 15,000원; 우삼겹: 15,000원; 김치찌개: 8,000원; 순두부: 8,000원"
솥뚜껑삼겹살,서울특별시 마포구 성암로3길 15,37.5688844,126.9113709,한식,"천하제일스페셜(500g): 옛날삼겹살+돼지윗갈비살+돼지껍데기+두부반모+야채추가(미나리)+된장찌개; 옛날삼겹살(160g): 11,000원; 자가두부 한모: 6,000원; 돼지윗갈비살(160g): 11,000원; 대패 소삼겹 (160g): 15,000원; 자가두부 두루치기 (2인분/점심): 18,000원; 자가두부 김치찌개(1인분/점심): 8,000원; 자가두부 반 모: 4,000원"
솥밥삼겹살,서울특별시 마포구 도화길 6-3,37.53958042,126.9469424,한식,"도드람으뜸삼겹살: 16,000원; 도드람목살: 16,000원; 차돌박이: 20,000원; 웰빙 쌈밥: 점심메뉴; 콩나물돼지불고기: 점심메뉴; 소고기청국장전골: 점심메뉴; 돼지김치찌개: 점심메뉴; 물냉면: 8,000원; 비빔냉면: 8,500원; 계란찜: 후식; 묵사발: 후식; 볶음밥: 후식; 라면사리: 후식; 대패삼겹살: 15,000원; 셀프볶음밥: 후식"
쇼부라멘 상암월드컵경기장점,서울특별시 마포구 월드컵로 240,37.5682852,126.8972751,일본식라면,"쇼유라멘: 8,000원; 미소라멘: 8,000원; 돈코츠라멘: 9,000원; 탄탄멘: 아주매운맛/덜매운맛; 냉모밀소바: 8,000원; 돈카츠덮밥: 9,000원; 불고기덮밥: 9,000원; 치킨덮밥: 9,000원; 새우튀김덮밥: 10,000원; 연어덮밥: 12,000원; 돈카츠카레: 9,000원; 고로케카레: 9,000원; 새우튀김카레: 10,000원; 모듬카츠카레: 돈카츠1+고로케1+새우튀김1; 등심돈카츠: 9,000원"
쇼콜라윰,서울특별시 마포구 월드컵북로7길 76-14,37.55839793,126.913504,케이크전문,"딸기케이크 미니: 25,000원; 딸기케이크 1호: 36,000원; 딸기케이크 2호: 46,000원; 딸기케이크 3호: 58,000원"
수더분,서울특별시 마포구 백범로 152,37.54474613,126.9482617,베이커리,"사워도우: 8,000원; 통밀사워도우: 9,500원; 올리브&치즈 치아바타: 3,800원"
수라간,서울특별시 마포구 동교로38안길 3,37.56197793,126.9246577,한정식-일반,"[요리] 닭볶음탕: 순살 닭볶음탕(닭다리살) 36000원 순살 반마리 추가 +18,000원; [요리] 감자전 (명란추가시 4,000원): 15,000원; 꼬막밥: 꼬막,다시마,버섯을 넣고 강황 멸치등을 끓인 육스로 지은밥에 양념간장과 함께 비벼 건강해 지는 식사; 새우 명란 비빔밥: 따뜻한 밥위에 새우버터구이, 새싹, 버터 계란후라이, 참기름과 명란젓을 올린 비빔밥; [요리] 소불고기전골: 34,000원; [요리] 간장게장(2마리): 국내산 암게로 만든 간장게장입니다; 왕새우부추전: 21,000원; (신메뉴) 양념게장: 28,000원; 쭈꾸미제육볶음: 26,000원; [요리] 소불고기파전: 21,000원; [요리] 오동통오징어 김치전: 16,000원; [요리] 제육볶음: 20,000원; [요리] 명란계란말이: 17,000원; [요리] 대패삼겹 김치전: 16,000원; [식사] 생선구이(고등어): 13,000원"
수부니흐,서울특별시 마포구 동교로38길 35,37.56135768,126.9258098,양식,"비프웰링턴: 46,000원; 비프립 플래터: 12시간 이상 수비드한 비프립과 풀드포크, 램; 트러플 화이트라구, 딸리아뗄레: 24,000원; 가리비관자구이: 23,000원; 풀드포크와 램: 15,000원; 화이트 라구, 스파게티니: 17,000원; 관자보리리조또: 22,000원; 감베로니 로제, 스파게티니: 18,000원; 양고기 라구 딸리아뗄레: 18,000원"
수빈소머리곰탕,서울특별시 마포구 백범로 169-23,37.54566486,126.9502518,"곰탕,설렁탕","소머리곰탕: 9,000원; 소머리수육: 48,000원; 구둘장 솥뚜껑 생등심: 50,000원; 구둘장 솥뚜껑 삼겹살: 13,000원"
수상한 키친,서울특별시 마포구 성미산로 190-31,37.5625383,126.9258381,일식당,"다시마숙성연어: 다시마와 청주를 이용해 숙성시켜 연어의 감칠맛을 최대로 끌어낸 사시미; 그라브락스연어: 북유럽식 숙성방법을 적용하여 연어회로 풀어낸 수상한 키친의 대표메뉴 7가지 각종 허브와 양념을 이용하여 최고의 조합을 보여줍니다!; 반반연어: 다시마 숙성 연어도 먹고 싶고 그라브락스도 먹고싶다면? 두말할것없이 반반연어지!; 연어마요: 다른곳에선 맛 볼 수 없는 특제 로제소스를 뿌리고 불맛을 입혀낸 특별한 아부리 지라시 스시; 연어지라시스시: 다시마 숙성을 거친 연어와 달콤한 일본식 계란말이, 수상한키친만의 특제 간장이 완벽한 조화를 이루는 떠먹는 연어 지라시 스시; 수상한연어누들: 입짧은햇님도 반한 수상한키친의 연어국수 연어누들!; 수제치킨가라아게: 굳이 설명이 필요없는 베스트셀러!; 새우튀김: 바삭바삭 겉바속촉의 정석 새우튀김 4피스; 브륄레연유크림새우: 바삭한 새우튀김에 달콤한 연유크림소스!; 타코야끼: 6,000원"
수상한 파스타,서울특별시 마포구 마포대로 49,37.54086845,126.9468903,일식당,"다시마숙성연어: 다시마와 청주를 이용해 숙성시켜 연어의 감칠맛을 최대로 끌어낸 사시미; 그라브락스연어: 북유럽식 숙성방법을 적용하여 연어회로 풀어낸 수상한 키친의 대표메뉴 7가지 각종 허브와 양념을 이용하여 최고의 조합을 보여줍니다!; 반반연어: 다시마 숙성 연어도 먹고 싶고 그라브락스도 먹고싶다면? 두말할것없이 반반연어지!; 연어마요: 다른곳에선 맛 볼 수 없는 특제 로제소스를 뿌리고 불맛을 입혀낸 특별한 아부리 지라시 스시; 연어지라시스시: 다시마 숙성을 거친 연어와 달콤한 일본식 계란말이, 수상한키친만의 특제 간장이 완벽한 조화를 이루는 떠먹는 연어 지라시 스시; 수상한연어누들: 입짧은햇님도 반한 수상한키친의 연어국수 연어누들!; 수제치킨가라아게: 굳이 설명이 필요없는 베스트셀러!; 새우튀김: 바삭바삭 겉바속촉의 정석 새우튀김 4피스; 브륄레연유크림새우: 바삭한 새우튀김에 달콤한 연유크림소스!; 타코야끼: 6,000원"
아고야,서울특별시 마포구 월드컵북로 352-14,37.57749236,126.8932677,소고기구이,"[디너] S코스: [인스타 깍둑스페셜] ★육회★ 부채살,토시살,상등심, 살치살; [디너] C코스: [모든부위를 한번에] 차돌박이, 부채살, 토시살, 늑간살, 상등심, 살치살; [디너] B코스: [가성비 메뉴] 차돌박이, 부채살, 늑간살, 상등심; 점심예약(X): 점심예약 불가능; [런치] 옛날통닭덮밥 ★신메뉴★: 15,000원; [런치] 스테이크덮밥 특: 15,000원; [런치] 스테이크덮밥 기본: 부드러운 소고기 부채살과 신선한 야채들, 아고야만의 특제소스와의 궁합이 환상적인 덮밥; [런치] 새우튀김 (사이드): 필수각!! 한정판매; [런치] 가라아게 토핑 (사이드): 덮밥에 가라아게 포핑까지 푸짐하게"
아구,서울특별시 마포구 도화길 45-1,37.54186594,126.9506445,"아귀찜,해물찜","아구찜 4인: 70,000원; 해물찜 4인: 70,000원; 순살아구찜 2인: 45,000원; 순살아구찜 3인: 60,000원; 순살아구찜 4인: 70,000원; 아구찜 3인: 60,000원; 아구찜 2인: 45,000원; 해물찜3인: 60,000원; 해물찜 2인: 45,000원; 아구탕 大: 70,000원; 아구탕 中: 60,000원; 해물탕 大: 70,000원; 해물탕 中: 60,000원; 해물탕 小: 45,000원; 알찜2인: 35,000원"
아구나라,서울특별시 마포구 월드컵북로 192,37.56842714,126.9077099,"아귀찜,해물찜","아귀찜/아귀탕 소: 35,000원; 아귀찜/아귀탕 중: 45,000원; 아귀찜/아귀탕 대: 55,000원; 해물찜/해물탕 소: 45,000원; 해물찜/해물탕 중: 55,000원; 해물찜/해물탕 대: 65,000원; 섞어찜/섞어탕 특대: 75,000원"
아날로그 하우스,서울특별시 마포구 성미산로23안길 19,37.56598022,126.9208875,바(BAR),"칵테일: 진토닉, 올드패션, 갓파더, 솔티 독, 깔루아 밀크 등 다양한 칵테일 메뉴가 있습니다.; 에스프레소: 에스프레소에 얼음, 생크림, 레몬 등 기본으로 제공해드립니다.; 위스키: 1792 스몰배치, 와일드 터키8, 글렌피딕 15, 조니워커 블랙, 몽키 숄더"
아날로그가든,서울특별시 마포구 동교로 145,37.55546621,126.918051,카페,"가든 스페셜: 아날로그가든의 다양한 대표 메뉴들을 함께 즐길 수 있는 스페셜한 플레이트(베이컨 따로추가); 파머스 플레이트: 훈제연어와 아보카도, 베이컨과 수란 그리고 트러플과 함께 즐기는 퍼펙트한 플레이트; 피쉬 아웃 오브 워터: 이름에서 느껴지듯이 통통튀는 매력의 훈제 연어와 아보카도 그리고 수란과 함께 즐기는 브런치; 쿠스쿠스 보울: 자이언트 쿠스쿠스 와 함께 풍부한 양의 야채 그리고 후스와 함께 즐기는 지중해식 샐러드; 가든 에그스: 빵, 스크럼블 에그와 각종 야채, 허브 그리고 토마토 토핑과 함께 먹는 간편한 브런치; 에그스 & 햄: 가든 에그스 + 스모크 햄; 에그스 & 아보카도: 가든에그스 + 아보카도; 가든 브런치: 가든 에그스 + 햄 + 아보카도; 팔라펠 랩: 병아리콩을 으깨 만든 완자인 팔라펠을 샌드위치 처럼 먹는 스타일; 팔라펠 플레이트: 팔라펠과 함께 풍부한 양의 야채를 섞어 다양한 맛을 즐길수 있는 샐러드 플레이트; 풀드 포르케타: 돼지고기를 각종 향신료, 허브 등과 함께 오븐에 구워 만든 이탈리아 음식; teas: 4,500원; 코코넛샤워: 6,500원; 롱블랙: 4,500원; 콜드브루: 5,500원"
아날로그키친 연남동 홍대입구역점,서울특별시 마포구 월드컵북로2길 93,37.55877168,126.9248169,요리주점,"한우 육회: 갓성비의 질 좋은 국내산 100% 냉장 한우 육회입니당; 연어 사시미: 신선한 연어 사시미; 꼬치 세트: 부산 60년 전통의 수제 어묵; 한우 타다끼: 소고기 타다끼; 문어 숙회: 19,900원; 연어&육회: 베스트 조합 두툼하고 신선한 연어사시미와 국내산 냉장 한우 육회; 연어&육사시미: 두툼하고 신선한 연어와 고퀄의 국내산 냉장 한우 육사시미; 육사시미 스페셜: 한우 육사시미; 골뱅이소면: 18,000원; 고등어구이: 18,000원; 삼치구이: 18,000원; 가라아게&감자튀김: 16,900원; 오징어튀김: 16,900원; 어묵당 떡볶이: 15,000원; 먹태: 15,000원"
아니키,서울특별시 마포구 어울마당로5길 47,37.54980341,126.9181215,요리주점,"모듬야끼: 숙성한우암소200g 새우2,관자4,오징어한마리 모듬야채; 미나리토리나베: 주인장이 일본유학시절 즐겨먹던 센다이 명물 세리나베의 아니키버젼!!; 한우 부채살 나베: 25,000원; 얼큰오뎅탕: 20,000원; 소이갈릭 치킨마요: 19,000원; 명란감자그라탕: 19,000원; 카니미소: 15,000원; 카니미소리조토: 13,000원; 카니미소우동: 13,000원; 명란크림우동: 12,000원; 명란오일파스타: 12,000원; 나폴리탄스파게티: 12,000원; 야끼소바: 12,000원; 수제가라아게: 11,000원; 안심가츠: 9,900원"
아뜨뜨,서울특별시 마포구 동교로38길 42-5,37.5609413,126.9255954,한식,"꼬막 게장 솥밥: 남도 꼬막 무침과 양념 게장, 미나리를 올린 솥밥; 돌문어 솥밥: 돌문어 숙회와 특제소스를 곁들인 솥밥; 전복 솥밥: 향채와 청주로 부드럽게 익힌 전복 솥밥; 언양식 불고기 솥밥: 특제소스에 장시간 재워 구워낸 불고기 솥밥; 동파육 솥밥: 향신료를 넣어 반나절 조린 수육 솥밥; 소고기 솥밥: 부채살을 살짝 구워 올린 솥밥; 도미 버터 솥밥: 담백한 도미살과 조림무를 얹은 솥밥; 돼지꼬리찜(중): 저온습식으로 브레이징한 꼬리찜; 불돼지꼬리찜(중): 저온습식으로 브레이징한 매콤한 꼬리찜; 등뼈구이(중): 매콤 달콤하게 조리한 뼈구이"
아띠네(Attine),서울특별시 마포구 와우산로 39-11,37.54813513,126.9223667,양식,"XO치미추리스테이크: 39,000원; 아띠네 멘보샤: 바질 페스토, 라클렛 치즈로 맛을 낸 아띠네에서만 맛 볼 수 있는 대표 추천 요리; 단호박 뇨끼: 단호박 퓌레,고르곤졸라의 풍미와 견과류의 고소함이 어우러진 수제 뇨끼; 아띠네 유린기: 24,000원; 트러플뇨끼: 30,000원; 관자보타르가파스타: 26,000원; 우니단새우 파스타: 25,000원; 생 트러플 파스타: 28,000원; 광어세비체: 18,000원; 카치오 페페: 페코리노 치즈와 레지아노 치즈로 맛을 낸 부드럽고 진한 풍미의 치즈 파스타; 볼로네제 파스타: 아띠네만의 특제 토마토 라구 소스로 깊은 맛을 낸 파스타; 부라타치즈: 15,000원; 알감자튀김: 9,000원; 브리치즈 구이: 구운 브리치즈와 유기농 크래커; 아띠네 레어 치즈케이크: 수제 레어 치즈케이크"
아리랑,서울특별시 마포구 동교로 156,37.55547874,126.9194203,"육류,고기요리","한우꽃등심: 프리미엄 암소한우를 파격적인 가격으로 선보이는 우수한 갈빗살; 숯불왕생갈비: 58,000원; 숯불왕양념갈비: 52,000원; 소갈비찜솥밥한상: 부드러운 갈비찜과 갓지은 솥밥으로 푸짐하고 든든한 한상; 한우불고기 도시락: 아리랑 VIP도시락; 전복한우불고기도시락: 아리랑 VIP도시락; 전복장어구이도시락: 아리랑 VIP도시락; 한우샤토브리앙( 사전예약): 미경산(未經産) 암소한우 생갈비 : 50개월령 미만의 미경산우; 한우살치살: 75,000원; 한우안창살: 72,000원; 매운치즈 소갈비찜 솥밥한상: 치즈가 올라갑니다~; [한정]간장게장한상 , 양념게장한상: [한정메뉴]국내산 봄철 금꽃게로 직접 만든 아리랑 대표메뉴!; 보리굴비한상: 손이 많이 가는 전통방식으로 직접 만드는 '단골고객'만 아는 보리굴비; 전복특갈비탕: 전채요리로 샐러드와 탕평채(혹은 잡채)를 제공합니다. 영양가높은 전복솥밥을 메인으로 국내산 우리재료로 만든 반찬과 직접담근 김치로 근사한 한상을 차립니다.; 특갈비탕: 23,000원"
아리랑숯불갈비,서울특별시 마포구 잔다리로 45,37.55211934,126.9185973,"육류,고기요리","돼지왕갈비: 오랜 시간 고객의 칭찬을 받는 아리랑 명품 왕갈비입니다.; 삼겹살: 멍품으로 회자된 아리랑삼겹살입니다. 지금도 마니아 고객께서 열성으로 찾아주십니다.; 소갈비: 아리랑 양념소갈비입니다. 뛰어난 가성비로 고객의 사랑을 받고 이습니다.; 갈비살: 변동; 생고기김치찌개전골: 변동; 명품한우육회비빔밥: 변동; LA갈비: 변동; 갈비탕: 변동; 말아먹는된장찌개(차돌된장찌개): 변동; 김치찌개: 변동; 물냉면: 변동; 비빔냉면: 변동; 뚝배기버섯불고기(점심특선): 10,000원; 후식물냉면: 변동; 후식비빔냉면: 변동"
씨클로,서울특별시 마포구 포은로 72,37.5536975,126.906012,아시아음식,"분보훼 (족발 쌀국수): 13,000원; 짜조: 5,000원; 베트남버블밀크티/베트남혹당밀크티: 8,000원; 분팃느엉(돼지고기 숯불 비빔국수): 10,500원; (퍼 보 ) 양지 쌀국수: 12,000원; 분짜: 13,500원; 공심채볶음: 10,000원; 반미(돼지숯불구이): 9,000원; 반쎄오: 14,000원; 돼지고기쌀국수: 12,000원; 해산물쌀국수: 12,000원; 돼지갈비 덮밥: 12,000원; 해산물볶음밥: 11,000원; 짜조/스프링롤: 5,000원; 러우보(소): 45,000원"
씨유마포망원점,서울특별시 마포구 월드컵로31길 11,37.56154583,126.9040977,편의점,
씨유마포애오개,서울특별시 마포구 마포대로16길 4,37.55094146,126.955961,편의점,
씨유마포합정점,서울특별시 마포구 희우정로 51,37.55117336,126.9058791,편의점,
씨유망원2동점,서울특별시 마포구 방울내로 38,37.5586895,126.900212,편의점,
씨유상암누리꿈점,서울특별시 마포구 월드컵북로 396,37.57949646,126.8903226,편의점,
씨유상암오벨리스크2차점,서울특별시 마포구 월드컵북로 481,37.58337663,126.8808849,편의점,
씨유서교타워점,서울특별시 마포구 양화로 133,37.55523173,126.9209857,편의점,
씨유신촌까사빌점,서울특별시 마포구 서강로 135,37.55451568,126.9354261,편의점,
씨유이대역점,서울특별시 마포구 숭문길 214,37.55592258,126.9466335,편의점,
씨유홍대3호점,서울특별시 마포구 와우산로29길 16,37.5550165,126.9290244,편의점,
씨유홍대거리점,서울특별시 마포구 어울마당로 35,37.54849307,126.9201208,편의점,
씨유홍대한벗점,서울특별시 마포구 와우산로23길 14,37.55373203,126.9245044,편의점,
씨유홍익인간점,서울특별시 마포구 양화로 183,37.55836925,126.9251509,편의점,
씨유 상암 푸르지오점,서울특별시 마포구 월드컵북로54길 25,37.58209253,126.8889879,편의점,
씨유 상암YTN사옥점,서울특별시 마포구 상암산로 76,37.57919539,126.8923142,편의점,
씨유 상암스위트점,서울특별시 마포구 상암산로1길 77,37.58026977,126.8829693,편의점,
씨유 상암오벨리스크,서울특별시 마포구 구룡길 19,37.58706559,126.8834373,편의점,
씨유 서강대원룸점,서울특별시 마포구 백범로 64,37.54904133,126.9388763,편의점,
씨유 서강대학사점,서울특별시 마포구 서강대길 12,37.54924888,126.9399145,편의점,
씨유 성산1동점,서울특별시 마포구 성산로6길 21,37.56394332,126.9109966,편의점,
씨유 성산미래점,서울특별시 마포구 동교로19길 86,37.55913698,126.9164777,편의점,
씨유 성산아리랑점,서울특별시 마포구 월드컵북로 118,37.56370507,126.9135062,편의점,
씨유 성산행복점,서울특별시 마포구 월드컵로26길 6,37.55883542,126.908178,편의점,
씨유 신마포강변점,서울특별시 마포구 마포대로4다길 18,37.53632785,126.943933,편의점,
씨유 연남고가점,서울특별시 마포구 연남로 97,37.56691285,126.9174442,편의점,
씨유 연남꿈나무점,서울특별시 마포구 연남로3길 39,37.56047313,126.9206952,편의점,
씨유 용인송담대학생회관점,서울특별시 마포구 마포대로 137,37.54679408,126.9526125,편의점,
씨유 이대푸르지오점,서울특별시 마포구 신촌로 170,37.55635295,126.9443752,편의점,
씨유 재화스퀘어점,서울특별시 마포구 독막로 311,37.54399651,126.9474812,편의점,
씨유 중앙미디어사옥점,서울특별시 마포구 상암산로 48-6,37.57701218,126.8900996,편의점,
씨유 한강시민공원점,서울특별시 마포구 망원로 8,37.55572975,126.8978108,편의점,
씨유 합정몬스터점,서울특별시 마포구 어울마당로5길 42-5,37.550026,126.9182767,편의점,
씨유 홍대서교점,서울특별시 마포구 와우산로29길 70,37.55636404,126.9265944,편의점,
씨유 홍대학사점,서울특별시 마포구 독막로19길 42-18,37.5498023,126.9240063,편의점,
씨유공덕삼성점,서울특별시 마포구 백범로37길 12,37.54266721,126.9556576,편의점,
쑥쑥김밥,서울특별시 마포구 마포대로 173,37.549901,126.954459,김밥,"NEW 매운어묵김밥: 매콤하고 개운한 매운 어묵 김밥이에요❤️ 사장 추천 스페셜 메뉴 출시!; 쑥쑥김밥: 4,000원; 쑥쑥유부김밥: 5,000원; 참치김밥: 5,500원; 치즈김밥: 5,000원; 떡볶이: 5,000원; 어묵: 1,000원"
씨유 공덕래미안점,서울특별시 마포구 만리재옛길 66-1,37.54930401,126.9582812,편의점,
씨유 공덕한겨레2호점,서울특별시 마포구 효창목4길 3,37.54735865,126.9594059,편의점,
씨유 노고산창천점,서울특별시 마포구 고산길 54,37.55416116,126.9401014,편의점,
씨유 마포서강해모로점,서울특별시 마포구 토정로 165-9,37.54586219,126.9290534,편의점,
씨유 마포연남점,서울특별시 마포구 동교로 261-1,37.56318928,126.9250931,편의점,
씨유 마포우성점,서울특별시 마포구 삼개로 35,37.53706356,126.9476227,편의점,
씨유 마포인텔리안점,서울특별시 마포구 마포대로 208,37.55251707,126.9568445,편의점,
씨유 마포자이3차,서울특별시 마포구 숭문길 98,37.55027285,126.9466111,편의점,
씨유 망원스카이점,서울특별시 마포구 희우정로 118,37.55525922,126.900495,편의점,
씨유 망원월드컵점,서울특별시 마포구 망원로 95,37.55798041,126.9073076,편의점,
씨유 망원현대점,서울특별시 마포구 월드컵로29길 58,37.55911324,126.9031486,편의점,
썬마이야르,서울특별시 마포구 대흥로 82,37.54731798,126.941628,베이커리,"망고 케이크: 홀케이크는 문의주세요 :) 1호 : 40000원; 감자베이컨치즈 바게트: 5,500원; 새우 아보카도 포카치아: 7,000원; 참치콘 소금빵: 5,000원; 레몬바질카프레제: 5,000원; 양송이스프: 7,000원; 밤 크림 크루아상: 6,500원; 가지토마토 포카치아: 구운가지, 베샤멜소스, 토마토; 딸기 케이크: 딸기 듬뿍 넣어 만듭니다. 홀 케이크는 1호 35000원, 2~3일전 주문 부탁드립니다.; 블루베리 식빵: 6,500원; 커스터드크림 라떼: 직접 끓여만든 커스터드 크림 우유가 들어갑니다.; 올리브 치아바타: 5,000원; 피스타치오크림 크루아상: 6,500원; 아몬드크림 크루아상: 5,500원; 소금빵: 3,000원"
쎄븐일레븐 광흥창역점,서울특별시 마포구 창전로 64,37.54806851,126.9328986,편의점,
쏘크라테스,서울특별시 마포구 독막로38길 22,37.54555478,126.9409407,분식,"핫도그 쏘크라테스: 16,900원; 로제 쏘크라테스: 16,900원; 베이컨 쏘크라테스: 17,900원; 쏘크라테스: 14,900원"
쏘핫마라탕마라샹궈,서울특별시 마포구 매봉산로2길 15,37.57852649,126.8949732,중식당,"마라탕: 100g당1700원 탕요리 이며 셀프로 고르신 야채로 땅콩소스+사골육수로 조리되는 탕요리; 마라샹궈: 100g당3000원 볶음요리이며 셀프로고르신 야채고기등재료로 중국식 마라 볶음 요리입니다; 꿔바로우(대): 15,000원; 꿔바로우(소): 12,000원; 마라새우: 18,000원; 마라라면: 10,000원; 쏸라펀: 10,000원; 볶음밥: 7,000원; 꽃빵 미니찐빵: 3,000원; 미니 전: 2,000원; 꼬치류: 1,000원; 소고기,양고기: 3,000원; 훠궈(샤브샤브) 무한리필(예약제2인): 17,000원"
실로또상수,서울특별시 마포구 독막로19길 42-12,37.54941105,126.9239553,이탈리아음식,디너코스메뉴: 7가지 요리와 커피 또는 티가 제공됩니다
실일식,서울특별시 마포구 월드컵북로58길 10,37.58160042,126.8870819,일식당,"실사시미: 신선한 사시미와 각종해산물과 랍스터회(3인이상주문시),영광보리굴비,요리등이 준비되어있습니다; 특사시미: 제철 돔들이 활어로 준비되며,각종해산물과 랍스터회,영광보리굴비,다양한 요리가 제공; 통사시미: 줄돔,다금바리,능성어등 고급활어가 통사시미로 준비되며 미리 예약만 가능하신 메뉴입니다.; 실정식(런치메뉴): 신선한 사시미와 초밥,구이,튀김,서더리 매운탕,알밥,디저트가 준비됩니다.; 특정식: 신선한 사시미와 해산물(딱새우등) 초밥,구이,튀김,서더리 매운탕,알밥,디저트가 준비됩니다.; 사시미정식: 신선한 사시미와 해산물(딱새우등) 영광보리굴비,요리2가지,튀김,디저트가 준비됩니다.; 보리굴비정식: 영광에서 온 보리굴비를 직접 손질 후 실일식만의 비법으로 쪄서 정성스럽게 만들었습니다.; 민어탕/지리: 여름철 보양식으로 즐기는 여름한정 메뉴입니다.; 생대구탕/지리: 얼큰하고 시원한 생대구탕 담백하고 시원한 생대구지리; 전복뚝배기: 전복,새우,가리비,황게.모시조개등 싱싱한 해산물이 가득한 전복뚝배기; 복매운탕/지리: 얼큰하고 시원한 복매운탕 담백하고 시원한 복지리; 회덮밥: 신선한 사시미가 가득합니다.; 도미머리 술찜: 코스요리가 아닌 단품요리로 즐기실 수 있는 메뉴입니다.; 카다이프 새우튀김: 터키 전통국수를 왕새우에 직접 말아 바삭하게 튀긴 <실일식>시그니처 메뉴입니다.; 황게 간장게장 1.5kg: 실일식에서는 상차림에 직접담근 황게간장게장이 제공되고 있으며,판매도 가능합니다."
심양,서울특별시 마포구 독막로9길 43,37.55015459,126.9205156,양꼬치,"데리야끼 양꼬치: 어린양의 갈비살과 어깨살을 오겹으로 포갠 꼬치에 데리야끼 소스를 직접 발라 직화로 구워먹는 심양 히트메뉴; 꿔바로우: 겉은 바삭!! 속은 촉촉!! 돼지고기는 두툼!! 새콤 달콤 바삭 강정스타일의 심양 시그니쳐 히트메뉴; 오리지널 양꼬치: 1년미만의 어린양의 갈비살과 어깨살을 오겹으로 포개어 꼬치로 제작한 심양의 원조 시그니쳐 메뉴; 모듬꼬치: 모두 맛보고 싶을 때...; 마라탕: 심양 특제 마라소스에 각종 야채 버섯 당면 건두부등 을 넣고 양고기완자로 깊은 맛을 우린 메뉴; 가지튀김볶음: 바삭한 튀김옷속에서 가지 육즙이 팡 터지는 초절정 인기메뉴; 양고기김치찌개: 20,000원; 마라샹궈: 30,000원"
심쿠키,서울특별시 마포구 도화2길 20,37.53962668,126.949103,"카페,디저트","큐티 심곰이 (버터): 고소담백한 베이직 심곰이! (레터링 가능 : 개당+500 / 한글 2글자,영어 3글자); 핸섬 심곰이 (초코): 순수 카카오 100% 초코맛의 심곰이! (레터링 가능 : 개당 +500원); 힙스터 심곰이 (황치즈): 천연 황치즈 가루를 사용한 힙한 심곰이! (레터링 가능 : 개당 +500원); 베이비 심곰이 (단호박): 국산 100% 단호박 가루로 만든 귀여운 심곰이! (레터링 가능 : 개당 +500원); 헬스 심곰이 (말차): 호불호없이 남녀노소 인기 심곰이! (레터링 가능 : 개당 +500원); 스마트 심곰이 (흑임자): 100% 흑임자 가루를 사용한 고소~한 심곰이! (레터링 가능 : 개당 +500원); 심곰이 4종 선물세트: 사진과 같은 선물박스에 심곰이 4~5개가 담깁니다. (5개입 - 14,000원); [BEST] 심곰이 6종 선물세트: 사진과 같은 선물박스에 심곰이 6~8개가 담깁니다. (8개입 - 21,500원)"
심플리타이 합정점,서울특별시 마포구 양화로6길 57,37.54881079,126.9174228,태국음식,"팟타이꿍: 12,000원; 똠양꿍: 18,000원; 뿌팟퐁커리: 29,000원; 텃만꿍: 19,000원; 랍무: 18,000원"
싱그루맛집,서울특별시 마포구 성미산로 101,37.56171393,126.9184361,한식,"부대찌개: 10,000원"
싸다김밥 마포역점,서울특별시 마포구 마포대로 53,37.54144817,126.9470541,분식,"싸다김밥: 3,500원; 찜닭덮밥: 8,500원; 국물떡볶이: 5,500원; 납작만두: 6,000원; 떡왕만두국: 8,000원; 즉석우동: 5,500원; 소불고기덮밥: 8,500원; 해물볶음밥: 7,500원; 물(비빔)냉면: 7,000원; 김치찌개: 7,000원; 돈까스: 8,500원"
싸다김밥 망원역점,서울특별시 마포구 월드컵로 89,37.55676319,126.9091702,분식,"싸다김밥: 3,500원"
싸다김밥 홍대역점,서울특별시 마포구 양화로 114,37.55358203,126.9199116,분식,"싸다김밥: 3,500원"
싸리골,서울특별시 마포구 홍익로5길 51,37.55299706,126.919988,한식,"능이오리백숙: 75,000원; 능이닭백숙: 70,000원; 삼겹살: 15,000원; 오리탕: 60,000원; 옻닭: 60,000원; 옻오리: 65,000원; 한방닭백숙: 55,000원; 한방오리: 60,000원; 제육볶음: 25,000원; 제육정식(2인이상): 평일 오후3시까지; 김치찌개(2인이상): 8,000원; 된장찌개(2인이상): 7,000원; 모두부: 6,000원; 감자전: 10,000원; 김치전: 10,000원"
싸움의고수홍대입구역점,서울특별시 마포구 양화로 161,37.55693792,126.9233153,"족발,보쌈",1인보쌈 M: 특제 한방 육수와 솥에서 푸욱 삶아낸 보쌈; 1인족발 M: 진한 육수에 삶은 깊은 맛의 족발; 1인삼겹살 M: 즉석으로 야채와 함께 구워낸 1인 맞춤 삼겹살; 명란마요족발 덮밥 M: 고소한 쌀밥 위에 족발을 올리고 파채와 함께 명란마요소스를 올린 덮밥; 마라족발 덮밥 M: 고소한 쌀밥 위에 족발을 올리고 파채와 함께 마라소스를 올린 덮밥; 명란마요보쌈 덮밥 M: 고소한 쌀밥 위에 보쌈을 올리고 파채와 함께 명란마요소스를 올린 덮밥; 마라보쌈 덮밥 M: 고소한 쌀밥 위에 보쌈을 올리고 파채와 함께 마라소스를 올린 덮밥; 1인대패삼겹살 M: 즉석으로 야채와 함께 구워낸 1인 맞춤 대패 삼겹살; 마라족발 M: 진한 육수에 삶은 깊은 맛의 족발 위에 마라소스를 얹은 마라족발; 마라보쌈 M: 특제 한방 육수와 솥에서 푸욱 삶아낸 보쌈 위에 마라소스를 얹은 마라보쌈; 1인보족 XL: 혼자 보쌈과 족발 둘 다 먹고 싶을 때 고민을 해결 할 수 있는 1인보/족; 데리야끼대패 덮밥 M: 고소한 쌀밥 위에 대패삼겹살을 야채와 데리야끼소스를 넣고 볶아낸 덮밥; 싸움대패 덮밥 M: 고소한 쌀밥 위에 대패 삼겹살을 야채와 싸움소스를 볶아 매콤한 불맛을 살린 덮밥; 데리야끼족발 덮밥 M: 고소한 쌀밥 위에 족발을 올리고 파채와 함께 데리야끼소스를 올린 덮밥; 싸움족발 덮밥 M: 고소한 쌀밥 위에 족발을 올리고 파채와 함께 싸움소스를 올린 덮밥
쌀국수집이야 마포점,서울특별시 마포구 와우산로29길 30,37.55536253,126.928431,베트남음식,양지 쌀국수: 어무니가 장조림 만드려고 찢어둔 양지 훔쳐 만든 쌀국수
쌍마막회,서울특별시 마포구 토정로 257,37.54327641,126.9390711,생선회,"단품-막회(2인): 막회와 야채만나오는 단품메뉴입니다.; 단품-막회 3인: 막회와 야채만나오는 막회3인 단품메뉴입니다.; 회덮밥1인: 점심메뉴; 알탕1인: 점심메뉴; 생대구탕1인: 점심메뉴; 고등어구이 1인: 점심메뉴; 도다리세꼬시: 봄도다리 세꼬시; (제철메뉴)도다리쑥국: 15,000원; 회백반: 숙성회+알탕+계란후라이+생선전 이나오는 백반메뉴; 모듬회 2인-단품: 2~3인; 모듬회 3인-단품: 3~4인; 우럭,광어 2인 - 단품: 우럭+광어(중)=45,000 두가지 포함하셔도 금액은 동일합니다.; 우럭,광어 3인-단품: 우럭+광어(대)=55,000 두가지 포함하셔도 금액은 동일합니다.; 멍게물회: 15,000원; 생선물회: 15,000원"
신촌즉석생우동,서울특별시 마포구 대흥로 38,37.54413846,126.938742,"우동,소바","신촌우동: 7,000원; 오뎅우동: 7,500원; 유부우동: 7,500원; 김치얼큰우동: 7,500원; 돈까스: 9,000원; 치즈돈까스: 9,500원; 고구마치즈돈까스: 9,500원"
신촌통닭,서울특별시 마포구 신촌로 108,37.55515039,126.9378731,"백숙,삼계탕","산삼배양근누룽지삼계탕: 17,000원; 능이버섯삼계탕: 20,000원; 묵은지닭도리탕 중: 28,000원; 묵은지닭도리탕 대: 38,000원; 영양삼계탕: 15,000원; 전기통닭구이: 18,000원; 삼채닭한마리 대: 38,000원; 삼채닭한마리 중: 28,000원; 유황닭한마리 대: 35,000원; 유황닭한마리 중: 25,000원; 닭볶음탕 대: 35,000원; 닭볶음탕 중: 25,000원"
신화루,서울특별시 마포구 방울내로 63,37.5598989,126.9023674,중식당,"탕수육+짜장: 18,000원; 탕수육+해물쟁반짜장1: 19,000원; 탕수육+짜장2: 21,000원; 탕수육+해물쟁반짜장2: 24,000원; 닭고기탕수육+짜장2: 26,000원; 사천탕수육+해물쟁반짜장2: 27,000원; 깐풍육+해물쟁반짜장2: 27,000원; 깐풍두부+짜장2: 28,000원; 양장피+짜장2: 31,000원; 깐풍기+짜장2: 28,000원; 고추잡채+해물쟁반짜장2: 31,000원; 깐쇼새우+해물쟁반짜장2: 37,000원; 유산슬+해물쟁반짜장2: 37,000원"
신흥부전,서울특별시 마포구 매봉산로2길 25,37.57813315,126.8953074,"전,빈대떡","흥부전세트(모듬전+골뱅이무침): 48,000원; 놀부전세트(모듬전+오징어무침): 46,000원; 춘향전세트(모듬전+도토리무침): 42,000원; 모듬전: 34,000원; 굴전(계절): 21,000원; 해물파전: 17,000원; 해물부추전: 16,000원; 감자전: 16,000원; 김치전: 14,000원; 동태전: 16,000원; 동그랑땡: 16,000원; 고추전: 16,000원; 깻잎전: 16,000원; 골뱅이소면무침: 20,000원; 오징어무침: 20,000원"
신안밥상,서울특별시 마포구 월드컵로 235,37.56519693,126.8984865,"해물,생선요리","해물뚝배기: 8,000원; 김치찌개: 8,000원; 계란찜: 8,000원; 순두부찌개: 7,000원; 청국장찌개: 7,000원; 코다리조림: 10,000원; 갈치조림(2인이상): 13,000원; 오삼볶음(2인이상): 9,000원; 부대찌개(2인이상): 9,000원; 조기구이: 8,000원; 조기매운탕(2인이상): 9,000원; 뚝불고기: 9,000원; 고등어조림: 10,000원; 자반구이: 8,000원; 오징어볶음: 9,000원"
신야텐야 상암DMC점,서울특별시 마포구 월드컵북로 381,37.57795622,126.8898871,일식당,"신야가정식: 19,000원; 신야텐정식: 16,500원; 부타텐정식: 15,500원; 토리텐정식: 15,500원; 롤카츠정식: 15,500원; 규나베정식: 16,500원; 롤카츠나베정식: 16,500원; 에비텐나베정식: 16,500원; 신야텐동: 12,500원; 야사이텐동: 11,000원; 이카텐동: 13,000원; 롤카츠동: 12,000원; 부타텐동: 12,000원; 토리텐동: 12,000원; 에비텐동: 13,500원"
신야텐야 홍대상수역점,서울특별시 마포구 독막로 97,37.54794574,126.9243272,일식당,"신야가정식: 17,000원; 신야텐정식: 15,000원; 부타텐정식: 14,500원; 토리텐정식: 14,500원; 롤카츠정식: 14,500원; 규나베정식: 14,500원; 롤카츠나베정식: 14,500원; 에비텐나베정식: 14,500원; 신야텐동: 12,000원; 야사이텐동: 10,000원; 이카텐동: 12,500원; 롤카츠동: 11,500원; 부타텐동: 11,500원; 토리텐동: 11,500원; 에비텐동: 13,500원"
신야텐야합정교보문고점,서울특별시 마포구 월드컵로1길 14,37.55005008,126.9120633,일식당,"신야가정식: 17,000원; 신야텐정식: 15,000원; 부타텐정식: 14,500원; 토리텐정식: 14,500원; 롤카츠정식: 14,500원; 규나베정식: 14,500원; 롤카츠나베정식: 14,500원; 에비텐나베정식: 14,500원; 신야텐동: 12,000원; 야사이텐동: 10,000원; 이카텐동: 12,500원; 롤카츠동: 11,500원; 부타텐동: 11,500원; 토리텐동: 11,500원; 에비텐동: 13,500원"
신여사 뼈해장국,서울특별시 마포구 성미산로 73,37.56019436,126.9158322,해장국,"뼈해장국: 8,000원; 순대국: 8,000원; 순대해장라면: 6,000원; 만두순대국: 8,000원; 양선지해장국: 8,000원; 선지해장국: 5,500원; 콩나물해장국: 5,000원; 만두콩나물해장국: 6,000원; 내장탕: 9,000원; 갈비탕: 9,000원; 뚝불고기: 8,000원; 삼계탕: 11,000원; 감자탕 소: 23,000원; 감자탕 중: 28,000원; 감자탕 대: 33,000원"
신의주순대쭈꾸미 망원점,서울특별시 마포구 월드컵로13길 29,37.55542367,126.908522,"순대,순댓국","순대국: 9,000원; 한우소머리국밥: 10,000원; 뼈해장국: 10,000원; 김치내장국밥: 8,000원; 직화불고기: 12,000원; 직화쭈꾸미비빔밥: 10,000원; 직화쭈꾸미비빔밥세트: 13,000원; 수육국밥: 11,000원"
신의주찹쌀순대,서울특별시 마포구 양화로 124,37.55429354,126.9208634,"순대,순댓국","순대정식: 9,000원; 김치순대국: 8,000원; 순대국: 7,000원"
신의주찹쌀순대 이대역점,서울특별시 마포구 신촌로 190,37.55660799,126.9467031,"순대,순댓국","순대국: 10,000원; 특순대국: 12,000원; 얼큰순대국: 11,000원; 뼈해장국: 12,000원; 우거지소고기국밥: 12,000원; 쭈꾸미비빔밥: 10,000원; 한우소머리국밥: 12,000원; 사골만두국: 9,000원; 수육반접시: 12,000원; 모듬순대: 13,000원; 왕만두: 8,000원; 모듬순대: 25,000원; 항정수육: 30,000원; 머리수육: 25,000원; 순대곱창철판볶음(소): 30,000원"
신진도간장게장,서울특별시 마포구 월드컵북로2길 41,37.55703228,126.9227933,게요리,"간장게장정식: 40,000원; 자연산꽃게탕(대): 95,000원; 자연산꽃게탕(중): 75,000원; 아구찜: 50,000원; 코다리찜: 40,000원"
신참떡볶이 대흥역점,서울특별시 마포구 백범로 127-22,37.54668769,126.9457109,분식,[BEST SELLER] 떡볶이: 국물떡볶이의 원조! 신참떡볶이 :D 꼭 한번 드셔보세요!; [SIGNATURE] 달고마떡볶이: 어디에도 없는 신참떡볶이의 시그니쳐 메뉴! 치즈와 고구마무스가 떡볶이 위에 :ㅇ; [HOT!] 로제떡볶이: R.E.A.L. 로제떡볶이 중에 최고.; 치즈볼: 매장 사정에 따라 갯수와 가격의 차이가 있을 수 있음.; 고추튀김: 매장 사정에 따라 갯수와 가격의 차이가 있을 수 있음.; 새우튀김: 매장 사정에 따라 갯수와 가격의 차이가 있을 수 있음.; 오징어: 매장 사정에 따라 갯수와 가격의 차이가 있을 수 있음.; 치즈스틱: 매장 사정에 따라 갯수와 가격의 차이가 있을 수 있음.; 단호박: 매장 사정에 따라 갯수와 가격의 차이가 있을 수 있음.; 김말이: 매장 사정에 따라 갯수와 가격의 차이가 있을 수 있음.; 고구마튀김: 매장 사정에 따라 갯수와 가격의 차이가 있을 수 있음.; 삼각당면만두: 매장 사정에 따라 갯수와 가격의 차이가 있을 수 있음.; 어묵튀김: 매장 사정에 따라 갯수와 가격의 차이가 있을 수 있음.; 김치참치김밥: 김치와 참치를 매콤달콤하게 볶아 김밥속으로! 떡볶이와 먹으면 쵝.오.; 돈가스김밥: 바삭바삭한 돈가스를 김밥 속에? 떡볶이에 찍어먹으면 여윽~시 신참
신촌귀일만두,서울특별시 마포구 신촌로 108,37.55515039,126.9378731,만두,"고기교자: 3,500원; 김치교자: 3,500원; 흑미찐빵: 2,500원; 고기왕만두: 4,000원; 김치왕만두: 4,000원; 갈비교자: 4,000원; 얼큰라면: 4,500원; 우동: 4,500원; 냉우동: 6,000원; 냉면: 6,000원; 쫄면: 6,000원; 청양고추교자: 3,500원; 새우교자: 5,000원; 매콤갈비교자: 4,000원; 왕찐빵: 3,000원"
신촌맛집,서울특별시 마포구 대흥로20길 10,37.55015629,126.9446549,양식,"가정식 등심 스테이크: 등심스테이크와 단호박스프, 아지다마고의 한상차림(사이즈별 가격 상이); 미도인 스테이크 덮밥: 부드러운 부챗살 스테이크를 올린 말이 필요없는 미도인 대표 덮밥; 400 스테이크 덮밥 (하루 7그릇 한정): 호주산 청정육 등심을 무려 400g이나 한그릇에 담았습니다., 오전 11시20분부터 7분께 정성껏 만들어 보답하겠습니다. *테이블당 1개주문가능; 등심 트리플 스테이크: 부드러운 육즙의 스테이크, 메쉬 포테이토와 대파 세상에 없는 환상적인 조화(사이즈별가격상이; 대창 등심 스테이크: 대창과 부드러운 육즙의 스테이크 과감하지만 멋진 콜라보(사이즈별 가격 상이); 곱창 등심 스테이크: 12시간저온숙성한 소곱창과 스테이크, 오직 미도인만이 구현하는 메뉴(사이즈별로 가격상이; 9첩반상(한정): 쉐프의 손길로 한땀한땀 정성을 들인 미도인 만의 한정 스페셜 메뉴 ( 오후 5시부터 7그릇 한정메뉴 ); 우니 스테이크 덮밥 한상차림(S): 바다의 맛이 일품인 우니와 미도인스테이크의 만남! 입에서 녹아버릴지도 몰라요 !; 단새우 스테이크 덮밥 한상차림(S): 단새우,생감태,스테이크의 특별한 만남! 고급스러운 한상차림에 담았습니다.; 등심 스테이크 덮밥 한상차림: 미도인 대표 등심스테이크 덮밥을 한상차림에 만나보세요 !; 큐브 스테이크 덮밥 한상차림: 인기덮밥 메뉴! 큐브 스테이크! 한상차림에 담았습니다!; 화산 불백 덮밥: 불맛 나는 돼지고기를 화산 모양으로 형상화한 비쥬얼 갑 강추 덮밥; 대창 덮밥: 말이 필요없는 맛!! 잘 손질된 대창을 매콤한 특제 양념과 불맛 나게 볶아낸 특별 덮밥; 곱창 대창 덮밥 (곱대): 미도인 만의 특별한 저온 숙성 방법과 매콤한 한국식 특제 소스를 곁들인 대한민국 최초 곱대덮밥; 대창 큐브 스테이크 덮밥: 스테이크와 대창을 함께 즐길수 있는 미도인만의 특별한 콜라보 메뉴"
신촌서서갈비,서울특별시 마포구 서강로20길 11,37.55393995,126.9365321,"육류,고기요리","소갈비 1대 150g: 20,000원"
신촌식당,서울특별시 마포구 마포대로14길 16,37.54828621,126.9562809,한식,"갑오징어 정식,두루치기, 쭈삼철판: 10,000원"
신촌일번지,서울특별시 마포구 신촌로 84,37.55554766,126.9349587,"순대,순댓국","곱창순대: 19,000원; 순대국(보통): 10,000원; 술국: 순대는 안들어가요; 모듬순대(특): 33,000원; 모듬고기(보통): 29,000원; 순대국(특): 11,000원"
안녕꽃게씨,서울특별시 마포구 월드컵로36길 54,37.56853673,126.9059198,한식,간장게장 정식: 간장게장 1미(300g)+반찬4종+ 밥+국; 꽃게 해물탕(1인분): 국산꽃게 해물탕+반찬 4종+밥+; 모둠 생선구이: 고등어1마리 + 가자미 1마리 + 조기1마리 + 반찬4종 +국 1 + 밥 1 (생선 수급에 따라 종류가 달라질 수 있습니다); 성게 미역국: 성게미역국+반찬4종+밥
오목집 마포점,서울특별시 마포구 도화길 50-6,37.54178057,126.9511775,"족발,보쌈","족발(中): 쟁반막국수(小)+양배추&소스+부추무침+무생채+야채스틱+상추+깻잎+새우젓+쌈장+고추+마늘+음료 355ml; 족발(大): 쟁반막국수(小)+양배추&소스+부추무침+무생채+야채스틱+상추+깻잎+새우젓+쌈장+고추+마늘+음료 355ml; 매운족발: 쟁반막국수(小)+부추무침+무생채+야채스틱+상추+깻잎+새우젓+쌈장+고추+마늘+음료 355ml; 냉채족발: 쟁반막국수(小)+부추무침+무생채+야채스틱+상추+깻잎+새우젓+쌈장+고추+마늘+음료 355ml; 쟁반막국수: 16,000원"
오봉도시락 상암점,서울특별시 마포구 월드컵로42길 12,37.5780055,126.8826861,"도시락,컵밥","백두산도시락: 백미,소불고기,제육볶음.돈까스,삼겹살 100g,떡갈비,새우튀김,4종반찬,쌈채소,유기농김,컵생수,믹스너트,소스 .물티슈; 삼겹살쌈밥도시락: 삼겹살200g,마늘,쌈채소,쌈장,오색전,부추전,김치전,반찬4종,; 서울도시락: 돈까스, 제육볶음, 계란말이, 비엔나 소시지,반찬4종; 설악산도시락: 백미, 제육볶음, 떡갈비, 생선까스, 새우튀김, 반찬5종; 육해공도시락: 남도떡갈비,매콤오징어볶음,순살치킨,고로케,비엔나소시지, 샐러드, 웨지튀김감자"
예쁜돼지상암점,서울특별시 마포구 월드컵북로 375,37.57757398,126.8907233,"육류,고기요리","커플세트(2인): 국내산 1등급 생삼겹살+생목살소금구이+마포껍데기+키조개관자; 돼부장세트(3인): 국내산 1등급 생삼겹살+생가브리살+소꽃진갈비살+마포껍데기+키조개관자; 마포껍데기: 7,000원; 김치말이국수: 7,000원; 된장국밥: 7,000원; 김치찌개: 5,000원; 된장찌개: 3,000원; 돼지한판SET: 70,000원; 생항정살(도드람포크): 19,000원; 생가브리살(도드람포크): 18,000원; 쁜과장세트(3인): 국내산 1등급 생삼겹살+생목살소금구이+소항아리양념갈비살+마포껍데기+키조개관자; 지사장세트(4인): 국내산 1등급 생삼겹살+생목살소금구이+소항아리양념갈비살+소꽃진갈비살+마포껍데기+키조개관자; 도드람으뜸생삼겹살: 국내산 1등급브랜드육인 도드람포크 최고등급인 으뜸 암돼지만을 사용합니다; 명품생목살소금구이: 국내산 최고급브랜드육을 참숯 직화화로구이로 맛있게 드실수 있습니다. 소고기 관자 버섯삼합으로 드실수있는셋트와 돼지고기 껍데기 관자삼합으로 드실수 있는 다양한 셋트가 구성되어 있습니"
옌타이,서울특별시 마포구 마포대로4길 44,37.53778354,126.946515,중식당,"옌타이짬뽕: 15,000원; 차돌짬뽕: 10,000원; 해물짬뽕: 9,000원; 짜장면: 6,000원; 탕수육(대): 27,000원; 탕수육(중): 22,000원; 깐풍새우: 32,000원; 볶음밥: 8,000원; 돈까스: 9,000원; 탕수육 소: 16,000원; 중화비빔짬뽕: 10,000원; 중화비빔짬짜: 10,000원; 군만두: 5,000원"
옛날김치찌개전문점,서울특별시 마포구 마포대로8길 31,37.5460391,126.9548637,한식,"생고기 김치찌개: 8,000원; 꽁치 김치찌개: 8,000원; 참치김치찌개: 8,000원; 오징어볶음: 10,000원; 제육볶음: 9,000원; 육개장: 9,000원; 매운갈비찜: 11,000원; 소불고기: 11,000원; 생고기모듬(삼겹살+목살+항정살): 45,000원; 삼겹살: 180g; 목살: 180g; 항정살: 150g; 김치전: 10,000원; 부추전: 10,000원; 두부김치: 18,000원"
연탄대로,서울특별시 마포구 잔다리로6길 20-8,37.551874,126.9203437,돼지고기구이,연탄 묵은지 삼겹살(200g): 연탄으로만 구은 삼겹살에 묵은지!; 연탄 고추장 불고기(230g): 50시간 숙성 연탄 고추장 불고기!; 연탄 간장 불고기(230g): 50시간 숙성 연탄 간장 불고기!
연탄불소금구이,서울특별시 마포구 망원로 15,37.55625013,126.8984183,"육류,고기요리","껍데기: 8,000원; 소금구이: 12,000원; 목살: 14,000원; 삼겹살: 15,000원; 돼지갈비: 14,000원; 막창: 13,000원; 갈매기살: 14,000원; 등갈비: 14,000원; 항정살: 15,000원"
연탄생고기집,서울특별시 마포구 연남로13길 13,37.56657225,126.9166567,"육류,고기요리","생삼겹살: 15,000원; 생목살: 15,000원; 항정살: 16,000원; 잔치국수: 5,000원; 소세지버섯: 7,000원"
연탄생고기집 서교점,서울특별시 마포구 월드컵북로5나길 18,37.55737356,126.9167558,"육류,고기요리","단짠단짝 돼지갈비: 수제 양념 숙성갈비.; 꼬들한 꼬들살: 흔히 뒷고기라 부르는 머리 뒷부분 특수부위; 뚱돼지 생삼겹: 15,000원; 두툼 뚱목살: 15,000원; 그 시절 연탄 생갈비: 15,000원; 쫀득한 항정살: 17,000원; 등심덧살 가브리: 16,000원; 꼬수운 초벌막창: 초벌 숙성되어 잡내가 없고 부드러움; 쫄깃 껍데기: 씹는 식감이 좋고 잡내가 없이 달콤함"
연피랑,서울특별시 마포구 동교로46길 3,37.56281223,126.9252456,"해물,생선요리","연피랑 모듬(중): 59,000원; 연피랑 모듬 플래터: 숙성회와 매장에 있는 모든 해산물 총집합; 깻잎 막회(소): 35,000원; 자연산 돌문어 숙회: 33,000원; 통영 자연산 돌멍게: 35,000원; 모듬 물회(계절메뉴): 39,000원; 전복 내장 파스타: 20,000원; 연피랑 모듬(소): 숙성회와 해산물; 깻잎 막회(중): 48,000원; 깻잎 막회(대): 60,000원; 우니(성게알) 한판: 33,000원; 통영 가리비찜: 33,000원; 통영 자연산 참소라 숙회: 33,000원; 한우 육회 낙지 탕탕이: 42,000원; 우니 한우 육회: 42,000원"
연희김밥,서울특별시 마포구 월드컵로13길 17,37.55552997,126.9092987,김밥,"연희김밥: 3,500원; 멸치김밥: 4,500원; 참치김밥: 4,500원; 꼬마김밥: 1,500원; 장조림김밥: 4,500원; 오징어김밥: 4,500원; 오징어꼬마김밥: 1,500원; 치즈김밥: 4,500원; 김치김밥: 4,000원; 매콤한멸치김밥: 4,500원; 청량고추김밥: 4,500원"
연희동할머니네,서울특별시 마포구 성미산로 100,37.56143537,126.9185194,한식,"생선구이 백반: 9,000원"
연희옥DMC,서울특별시 마포구 월드컵북로54길 25,37.58209253,126.8889879,"순대,순댓국","순대국정식: 11,000원; 순대국(보통): 7,000원; 순대국(특): 8,000원; 얼큰순대국(보통): 8,000원; 수육국밥: 8,500원; 돼지고기김치찜: 8,000원"
연희중식,서울특별시 마포구 양화로1길 32,37.55009059,126.9105915,중식당,"연희탕수육: 국내산 한돈 안심만을 사용하여 이틀간 저온숙성을 통해 튀겨지는 육즙 가득 탕수육; 해물짬뽕: 갖은 야채와 생물바지락, 오징어, 새우 등이 들어간 시원한 해물짬뽕; 짜장면: 국산양파를 사용하여 연희중식의 특별 춘장소스로 볶아낸 짜장면; 해물백짬뽕: 전혀 맵지 않은 담백하고 시원한 맛의 해물백짬뽕; 볶음밥: 통통한 새우살을 넣어 만든 볶음밥과 맛있는 짜장소스; 마파두부 덮밥: 연두부를 사용하여 부드럽게 조리한 돼지고기 마파두부; 연희가지덮밥: 가지를 부드럽게 조리하여 새송이 버섯과 함께 볶아낸 돼지고기 가지덮밥; 광동식 볶음면: 계란면을 사용하여 비법 간장소스를 넣고 맛있는 야채와 함께 볶아 낸 볶음면; 양장피: 여러가지 건강에 좋은 해산물, 야채들과 고추잡채를 얹어서 겨자소스에 버무려 먹는 대표 냉채; 팔보채: 8가지 좋은 재료를 넣어 굴소스, 두반장과 함께 재빨리 볶아 낸 맛있는 요리"
열날개,서울특별시 마포구 마포대로11길 15-8,37.54866482,126.9532427,닭요리,"열날개: 12,000원; 열닭발: 매운숯불닭발; 순살불닭: 17,000원; 치즈순살불닭: 20,000원; 영계통구이: 10,000원; 뼈없는 닭발: 16,000원; 오돌뼈: 17,000원; 닭똥집: 17,000원; 계란찜: 7,000원; 주먹밥: 3,000원"
열정갈비,서울특별시 마포구 월드컵북로48길 9,37.57676273,126.8942521,"육류,고기요리","수제 생갈비1인: 15,000원; 수제 양념갈비1인: 15,000원; 수제 포삼겹살: 15,000원; 소주: 4,000원; 맥주: 5,000원"
열정국밥,서울특별시 마포구 월드컵북로27길 12,37.56698827,126.9089874,국밥,돼지국밥: -국밥+공기밥 -2인 1찬 제공 -> 깍두기+새우젓/고추/마늘/양파/쌈장/양념장; 모듬국밥: -국밥+공기밥 -2인 1찬 제공 -> 깍두기+새우젓/고추/마늘/양파/쌈장/양념장; 살코기국밥: -국밥+공기밥 -2인 1찬 제공 -> 깍두기+새우젓/고추/마늘/양파/쌈장/양념장; 내장국밥: -국밥+공기밥 -2인 1찬 제공 -> 깍두기+새우젓/고추/마늘/양파/쌈장/양념장; 순대국밥: -국밥+공기밥 -2인 1찬 제공 -> 깍두기+새우젓/고추/마늘/양파/쌈장/양념장
염리국수,서울특별시 마포구 숭문2길 5,37.54695867,126.9457863,국수,"고기국수: 9,000원; 멸치국수: 6,000원; 비빔국수: 8,000원; 교자만두: 6,000원; 냉콩국수: 9,000원"
영광굴비정식,서울특별시 마포구 대흥로 43,37.54469653,126.9386775,"해물,생선요리","보리굴비: 19,000원; 영광굴비: 17,000원; 영광간장게장: 25,000원; 영광간장게장(특): 변동; 영광조기매운탕: 30,000원; 영광덕자찜(병어): 70,000원; 영광덕자찜(병어) 특: 90,000원"
영동감자탕,서울특별시 마포구 월드컵북로5길 17,37.5569693,126.9178708,감자탕,"감자탕 대: 41,000원; 감자탕 중: 35,000원; 감자탕 소: 29,000원; 뼈추가: 18,000원; 뚝배기 감자탕: 9,000원"
연남제비,서울특별시 마포구 성미산로 186,37.56308029,126.9259888,"육류,고기요리","제주흑목살 2인분: 38,000원; 베요타100% 이베리코목살: 19,000원; 어머니 된장찌개: 8,000원; 갓김치찌개: 8,000원; 마약간장계란찜: 4,000원; 제주 흑오겹살2인분: 38,000원; 제주 백오겹살: 18,000원; 제주 가브리살: 17,000원; 제주 항정살: 19,000원; 동치미국수: 6,000원; 비빔국수: 6,000원"
연남취향,서울특별시 마포구 연희로1길 36,37.56046495,126.9257321,양식,"회오리 오므라이스: 부드러운 회오리 오므라이스, 소고기로 볶아낸 감칠맛 나는 필라프; 항정매콤크림파스타: 저온에 정성들여 익힌 항정살, 부드러운 크림소스에 숨겨진 매콤함의 콜라보; 수비드 포크 스테이크: 12시간 숙성한 고기를 숙성해 만든 쫀득하고 미디엄 레어의 스테이크 , 그릴드 야채구이; 통삼겹 로제 파스타: 통째로 익힌 삼겹스테이크, 진한 토마토소스에 크림을 넣어 만든 수제 로제 소스 파스타; 바다향봉골레파스타: 이탈리아맛 그대로 바다향이 입혀진 파스타; 치킨커리 리조또: 13,000원"
연남파도,서울특별시 마포구 성미산로 153-14,37.56500986,126.9231653,이자카야,모듬 사시미 2인: 제철 생선으로 구성된 사시미 모리아와세; 모듬 스시: 제철 생선으로 구성된 스시; 트러플 광어 세비체: 하우스 스폐셜 메뉴; 사바보우즈시: 제주산 고등어 봉초밥; 마라 아나고 튀김: 하우스 스폐셜 메뉴; 오징어 먹물 크로켓: 하우스 스폐셜 메뉴; 미소쯔께 메로구이: 미소 베이스로 맛을 극대화한 메로구이; 금태구이: 제주산 최상급 금태; 소꼬리 스지찜: 부드러운 식감의 일품요리; 모츠나베: 담백한 일품요리; 한우차돌 스키야키: 달달한 일품요리
연남해장국,서울특별시 마포구 연희로 21-8,37.56080281,126.9262252,해장국,뼈해장국: 변동; 선지해장국: 변동; 콩나물해장국: 변동; 순두부해장국: 변동; 우거지해장국: 변동; 감자탕: 변동; 뼈다귀감자탕: 변동; 우거지감자탕: 변동; 김치감자탕: 변동
연안식당 마포점,서울특별시 마포구 토정로35길 29,37.54104749,126.9447378,"해물,생선요리",꼬막비빔밥: ※ 매장별로 가격대가 상이할 수 있습니다.; 해물뚝배기: 변동; 꼬막무침(소면): 변동; 꽃게살비빔밥: 변동; 뚝배기꼬막비빔밥: 변동
연어로만,서울특별시 마포구 홍익로 10,37.55372523,126.9236938,"초밥,롤","아부리 초밥: 연어를 토치로 구운 불맛이 가득한 초밥 불로 익힌 생연어 초밥, 데리야끼&크림소스 제공; 연어구이 크림 파스타: 18,900원; 두꺼어 사시미: 두툼한 식감이 기가 막히는 두꺼운 연어!!!! 두꺼어를 먹으면 연어의 참된맛을 알게된다!! 두껍게 썰어 식감이 좋은 생연어+채소크림양파+매운소스 제공; 생연어 정식: 생연어초밥, 아부리초밥, 생연어사시미, 샐러드, 반우동; 생연어 초밥: A급 생연어로 만든 초밥; 눈꽃 생연어 크림치즈 초밥: 19,900원; 생연어 덮밥: 배가 고플때 다양한 채소와 연어와 초고추장과 함께 쓱싹쓱싹~"
연어롭다,서울특별시 마포구 동교로38길 42,37.56105914,126.9256783,일식당,"생연어모듬: 35,000원; 생연어사시미: 25,000원; 생연어타다끼: 20,000원; 생연어와 크림치즈롤: 16,000원; 명란 로제 파스타: 18,000원; 연어스테이크와 리조또: 21,000원; 매콤 크림 파스타: 18,000원; 미소 바지락 파스타: 18,000원; 치킨가라아게: 10,000원; 게살크림고로케 3ea: 8,000원; 새우장 6ea: 15,000원; 생연어 초밥 10ea: 16,000원; 생연어 덮밥: 12,000원; 버터새우장밥: 11,000원; 연어 추가: 10,000원"
연우김밥,서울특별시 마포구 와우산로 31,37.5473192,126.9228084,김밥,"유부김밥: 담백한맛의 김밥입니다; 명태김밥: 강원도에서 공수해온 명태회 베이스의 연우김밥만의 스페셜 김밥입니다; 연우김밥: 기본에 충실한 김밥입니다; 참치김밥: 5,000원; 소고기김밥: 여러분들이 아시는 그맛; 더블치즈김밥: 5,000원; 매운멸치김밥: 5,000원; 꽃나물 김밥: 웰빙의 느낌이 그대로 느껴지는 맛입니다"
역전우동0410 마포대흥역점,서울특별시 마포구 백범로 129,37.54641771,126.9457486,"우동,소바","역전돈까스: 국내산 통등심의 도톰하고 부드러운 돈까스에 데미글라스소스가 어우려진 경양식 돈까스; 더블치즈돈까스: 국내산 통등심의 도톰한 돈까스와 두가지의 고소한 치즈의 깊은 맛을 느낄 수 있는 돈까스; 유린기돈까스: 푸짐한 야채와 상큼한 유린기 소스의 조합으로 기분좋게 즐길 수 있는 돈까스; 모둠까스: 돈까스+새우튀김+치킨을 한 그릇 한번에 즐길 수 있는 실속 메뉴; 구운파닭국수: 부드러운 닭가슴살과 구운 대파의 풍미가 어우러진 메뉴 쌀쌀한 날씨에는 구운파닭국수; 역전비빔면: 새콤달콤한 소스와 아삭한 야채가 어우러진 비빔물면(비빔국수); 우볶이: 학교 앞 추억의 떡볶이 국물과 탱글탱글 우동의 맵단짠 절묘한 조화; 옛날우동: 진한 가쓰오 국물맛과 쫄깃한 면발의 만남이 일품인 역전우동0410의 대표 우동메뉴; 김치우동: 볶음 김치가 얹어져 더욱 시원하고 깊은 맛을 내는 역전우동0410만의 특별한 우동; 오뎅우동: 큼지막한 오뎅이 더해져 더욱 깊고 풍부한 우동의 맛을 느낄 수 있는 메뉴; 냉우동: 살얼음이 동동 띄워진 시원한 우동국물이 여름철 더위를 싹~가시게 하는 시원한 별미; 야채튀김우동: 진한 가쓰오 국물맛과 고소한 야채튀김의 조화로운 만남; 새우튀김우동: 고소하고 바삭한 새우튀김을 얹은 우동; 모둠어묵우동: 푸짐하게 담았다 풍성한 어묵과 담백한 국물이 식사로 좋은 우동; 냉모밀: 사계절 내내 사랑받는 역전우동0410 만의 시원, 담백한 냉모밀"
역전우동0410홍대입구역점,서울특별시 마포구 어울마당로 127-1,37.5559537,126.9240764,"우동,소바","역전돈까스: 국내산 통등심의 도톰하고 부드러운 돈까스에 데미글라스소스가 어우려진 경양식 돈까스; 더블치즈돈까스: 국내산 통등심의 도톰한 돈까스와 두가지의 고소한 치즈의 깊은 맛을 느낄 수 있는 돈까스; 유린기돈까스: 푸짐한 야채와 상큼한 유린기 소스의 조합으로 기분좋게 즐길 수 있는 돈까스; 모둠까스: 돈까스+새우튀김+치킨을 한 그릇 한번에 즐길 수 있는 실속 메뉴; 구운파닭국수: 부드러운 닭가슴살과 구운 대파의 풍미가 어우러진 메뉴 쌀쌀한 날씨에는 구운파닭국수; 역전비빔면: 새콤달콤한 소스와 아삭한 야채가 어우러진 비빔물면(비빔국수); 우볶이: 학교 앞 추억의 떡볶이 국물과 탱글탱글 우동의 맵단짠 절묘한 조화; 옛날우동: 진한 가쓰오 국물맛과 쫄깃한 면발의 만남이 일품인 역전우동0410의 대표 우동메뉴; 김치우동: 볶음 김치가 얹어져 더욱 시원하고 깊은 맛을 내는 역전우동0410만의 특별한 우동; 오뎅우동: 큼지막한 오뎅이 더해져 더욱 깊고 풍부한 우동의 맛을 느낄 수 있는 메뉴; 냉우동: 살얼음이 동동 띄워진 시원한 우동국물이 여름철 더위를 싹~가시게 하는 시원한 별미; 야채튀김우동: 진한 가쓰오 국물맛과 고소한 야채튀김의 조화로운 만남; 새우튀김우동: 고소하고 바삭한 새우튀김을 얹은 우동; 모둠어묵우동: 푸짐하게 담았다 풍성한 어묵과 담백한 국물이 식사로 좋은 우동; 냉모밀: 사계절 내내 사랑받는 역전우동0410 만의 시원, 담백한 냉모밀"
연가정,서울특별시 마포구 동교로22길 38,37.55431169,126.9179205,"칼국수,만두","칼국수: 닭과 멸치로 오랜 시간 우려낸 진하고 맑은 육수와 생면으로 만든 칼국수; 닭곰탕: 닭/멸치 육수에 표고버섯의 풍미가 어우러진 국밥; 비빔면: (여름계절메뉴) 명태회무침을 곁들인 새콤달콤한 비빔 칼국수; 초계냉칼국수: (여름계절메뉴) 톡 쏘는 겨자 소스와 새콤한 닭육수로 만든 살얼음 가득한 냉칼국수; 들깨새우칼국수: (봄계절메뉴) 새우, 들깨, 버터가 어우러진 고소한 칼국수; 오리칼국수: (겨울계절메뉴) 오리고기에 미나리와 들깨를 곁들인 보양식 칼국수; 물만두: 수제 물만두"
연교,서울특별시 마포구 연희로1길 65,37.56160874,126.9266664,"딤섬,중식만두","성쟁바오: 7,000원; 오향닭(소): 12,000원; 궈티에: 7,000원"
연남 광안리,서울특별시 마포구 동교로 258-1,37.56278335,126.9250423,생선회,"광안숙성회: 매일 새벽 갓 잡은 고기를 최적의 조건으로 숙성해 회맛이 잘나도록 두툼하게 썰어드립니다.; 대방어회: 10kg 이상의 돼지 大방어를 당일 숙성하여 두툼하게 썹니다 제철에만 판매됩니다.; 육반연반: 숙성 生연어/ 암소 肉사시미; 생연어회: 입안에서 샤르르~~ 녹는 생연어회 두툼하게 썰어서 입안 가득 고소함이 느껴집니다.; 육사시미: 도축한지 3일이 안된 암소만을 취급합니다. 쫄깃하고 고소한 육사시미의 맛을 느껴 보세요~; 생멸치찌개: 부산 기장에서 올라온 손가락만한 생멸치를 먹기 좋게 손질해 선상 어부들 먹던 방식 그대로; 사이드: 9,000원"
연남 흑돼지,서울특별시 마포구 동교로32길 3,37.56084164,126.9245495,돼지고기구이,"흑돼지오겹살: 지리산에서 직접 공수한 버크셔 K 흑돼지를 웻 에이징 숙성시켜 육즙과 풍미가 우수합니다; 김치전골: 국내산 김장김치와 지리산 흑돼지를 사용하여 육수와 함께 보글보글 끓여낸 전골요리; 김치전골(스팸): 국내산 김장김치와 지리산 흑돼지, 스팸이 만나 기가막힌 국물과 건더기가 예술인 전골요리; 비빔라면(팔도): 고기와 함께 곁들이기 좋은 새콤달콤한 팔도비빔면을 쫄깃쫄깃하게 비벼드립니다"
연남동 느루,서울특별시 마포구 동교로32길 3,37.56084164,126.9245495,양식,"채끝등심 200g: 잘 숙성된 채끝등심 & 메쉬드포테이토 & 치미추리소스 & 소금 와사비; 시금치트러플오일뇨끼: 쫀득한 뇨끼 시금치 소스 , 새우 그리고 트러플오일; 가브리살멜젓오일파스타(생면): 홍합멸치페스토, 가브리살, 할라피뇨, 깻잎; 깐넬로니: 판체타, 라구소스, 리코타치즈, 시금치소스, 토마토소스; 가브리살 250g: 코울슬로 & 와사비; 아라비아따스파게티(생면): 통베이컨, 피망, 토마토소스, 스파게티생면, 리코타치즈, 바질오일; 트러플화이트라구(생면): 장시간 볶은 라구소스에 트러플오일로 마무리한 파스타 (딸레아뗄레); 관자새우크림파스타: 새우, 관자, 크림 (쌀알 모양으로 생긴 리소면); 청양크림뇨끼: 판체타 & 청양고추 & 크림소스 & 아몬드; 감바스: 20,000원; 카프래제샐러드: 토마토, 치즈, 바질; 가리비관자구이: 가리비관자 & 타르타르소스 & 버터 & 방울토마토피클; 카치오페페(생면): 오징어, 미역, 먹물스파게티 ,레지아노치즈, 후추; 홍합스튜: 홍합, 새우, 관자, 화이트와인 & 토마토소스; 하몽그린샐러드: 13,000원"
연남복돼지,서울특별시 마포구 동교로 248-1,37.56202185,126.9245326,돼지고기구이,"급냉삼겹살: 15,000원; 생삼겹살: 16,000원; 목살: 16,000원; 항정살: 18,000원; 소갈비살: 18,000원; 소막창: 20,000원; 된장찌개: 3,000원; 계란찜(추가시): 2,000원; 공기밥: 1,000원; 볶음밥: 4,000원; 비빔냉명: 6,000원; 물냉면: 6,000원; 소주(참이슬,처음처럼,새로,진로): 5,000원; 맥주(카스,테라,켈리): 5,000원; 한라산(21도): 7,000원"
엔소쿠,서울특별시 마포구 홍익로5안길 32,37.55348488,126.9211127,돈가스,"하루카츠: 달콤하고 부드러운 특제소스와 바삭한 일본식 돈카츠의 조화가 일품인 하루엔소쿠 대표메뉴; 특로스카츠: 최상급 생등심의 풍부한 육즙과 고소한 지방의 풍미가 매력적인 스페셜카츠; 특히레카츠: 지방이 적어 담백하고 부드러운 식감이 좋은 안심 돈카츠; 생선카츠: 겉은 바삭 속은 부드럽고 담백한 생선카츠와 타르타르 소스의 찰떡궁합; 모듬카츠: 3가지 인기메뉴를 한번에 즐길 수 있는 치즈, 등심, 생선카츠로 구성된 모듬 돈카츠; 핫카츠: 한번 맛보면 계속 생각나는 중독성 있는 매운 소스와 바삭한 돈카츠의 만남; 치즈카츠: 돈카츠안에 모짜렐라 치즈가 듬뿍 들어가 고소함이 입안 가득 퍼지는 치즈카츠; 스노우치즈카츠: 입 안에서 살살 녹아 내리는 자연산 치즈의 깊고 부드러운 맛과 매콤한 소스의 감동적인 조화; 김치나베우동: 칼칼한 육수에 김치와 치즈의 조화를 이룬 풍부한 맛, 퓨전 카츠 전골 메뉴; 김치카츠나베: 칼칼한 김치 육수에 바삭한 등심카츠와 치즈를 함께 즐기는 퓨전 돈카츠 전골 메뉴; 사누끼우동: 탱글탱글한 사누끼면과 함께 즐기는 뜨끈한 가쓰오 우동국물; 새우튀김우동: 바삭하게 튀겨낸 새우와 함께 즐기는 사누끼우동; 돈코츠라멘: 돼지뼈를 제대로 고아 만들어 없애고 육수의 진한 맛과 구수함만을 살린 전통 돈코츠라멘; 매운돈코츠라멘: 돈코츠라멘에 얼큰함을 더해 중독성 있는 매운맛이 매력적인 라멘; 돈카츠돈부리: 부드러운 돈카츠와 특제 간장소스의 조화가 일품인 일본식 덮밥"
엘비스텍,서울특별시 마포구 연남로1길 26,37.56041832,126.9216014,스페인음식,"감바스 알 아히오: 15,500원; 스페니쉬 오믈렛: 11,000원; 후에보 프리또: 16,000원; 부라타치즈 샐러드: 18,000원; 관자새우구이: 14,000원; 카스텔베트라노 올리브와 토마토: 7,000원; 트러플오일 감자튀김: 10,900원; 한치구이와 그린소스: 16,000원; 레몬 크림새우: 15,900원; 매콤한 오징어 홍합스튜: 25,000원; 에그인헬: 15,000원; 봉골레 파스타: 15,000원; 명란오일 파스타: 15,000원; 관자 오일 파스타: 17,000원; 스파이스 새우크림 파스타: 16,000원"
엠에이,서울특별시 마포구 동교로 106,37.55448185,126.9138777,바(BAR),"글렌리벳 12y: 12,000원; 글렌피딕 12y: 13,000원"
엠프티플레이트(empty plate),서울특별시 마포구 와우산로 39-12,37.54821755,126.9225126,이탈리아음식,"둥지 리조또: 크림베이스의 리조또위에 프로슈토햄으로 둥지를 표현하였다. 그위에 반숙계란으로 마무리.; 토마토 브루스케타: 하나의 브루스케타에서 두가지의 토마토맛을 느낄수있는 메뉴.; 시저샐러드: 닭가슴살을 더한 시저샐러드; 까로짜: 식빵에 모짜렐라치즈를 더해 튀긴 이탈리아간식.; 어란파스타: 어란과 레지아노치즈의 조화가 좋은 오일파스타.; 푸타네스카: 엔초비, 올리브, 케이퍼베리가 들어간 감칠맛 좋은 토마토파스타.; 뒥쉘 브루스케타: 양송이버섯 뒥쉘과 트러플오일을 올린 브루스케타.; 프로슈토 브루스케타: 프로슈토와 와일드루꼴라를 올린 브루스케타.; 솔티캬라멜 브루스케타: 솔티캬라멜소스와 여러가지 견과류가 올라간 브루스케타. 디저트용으로도 좋습니다.; 멜란자네: 모짜렐라치즈를 구운가지로 감싸고 토마토소스와 같이 먹는다.; 부라타&토마토: 부라타치즈와 토마토샐러드.; 매콤 까르보나라: 계란과 치즈로 만드는 정통 까르보나라에 매운맛을 더해서 더 맛있게 만든 파스타.; 뽀모도로 파스타(생면): 토마토소스와 부팔라 모짜렐라의 조화가 좋은 토마토 파스타.; 봉골레 파스타: 모시조개와 바지락으로 맛을낸 감칠맛 넘치는 파스타.; 차돌 파스타: 알리오올리오베이스에 차돌박이 구워 올리고, 꽈리고추로 느끼함을 잡은 파스타."
여기가거기,서울특별시 마포구 독막로 69,37.54801628,126.9211914,국수,"닭똥집: 16,000원; 잔치국수: 8,000원; 비빔국수: 9,000원; 콩국수: 5,000원; 순두부찌개: 10,000원; 바지락칼국수: 10,000원; 열무비빔밥: 9,000원; 열무냉국수: 9,000원; 왕만두: 6,000원; 동태찌개 ( 2인 이상): 8,000원; 김치찌개 ( 2인 이상): 10,000원; 닭복음탕-중-: 25,000원; 야채계란말이: 10,000원; 제육볶음: 16,000원; 닭복음탕 대: 30,000원"
여덟,서울특별시 마포구 동교로38길 22,37.56184006,126.9253501,"스파게티,파스타전문","감자옹심이매운크림파스타: 15,500원; 소불고기들깨크림파스타: 16,000원; 바질페스토오일파스타: 15,500원; 볼로네제수란파스타: 16,000원; 커리크림 파스타: 16,000원; 엔초비오일파스타: 16,500원; 돼지바베큐매콤깔조네피자: 19,000원; 콘치즈피자: 17,000원; 볼로네제피자: 18,000원; 바질 카프레제 피자: 19,000원; 감자옹심이매운크림리조또: 15,500원; 소불고기들깨크림리조또: 16,000원; 볼로네제 치즈 리조또: 16,000원"
여명,서울특별시 마포구 도화길 51,37.54209409,126.9509695,한정식-일반,간장게장: 짜지않고 맛있는 노란알이 꽉찬 간장게장; 보리굴비: 여명본점만의 특별주문으로 법성포 해풍에서 만들어지는 보리굴비; 양념게장: 매콤달콤 특제양념에 빨갛게 무친 양념게장; 간장꼬막장: 오동통한 국내산 꼬막을 여명의 특제간장에 숙성시켜 밥에 비벼먹어도 맛있는 간장꼬막장; 소갈비찜: 남녀노소 좋아하는 달콤한 간장소스의 부드러운 소갈비찜 (한상차림에서만 주문가능); 간장전복장: 바다의 산삼인 전복을 여명 특제 간장에 숙성 시킨 몸에 좋고 맛도 좋은 보양 음식
여우골초밥,서울특별시 마포구 삼개로 15,37.53898304,126.9476523,"초밥,롤","와규6p + 도로6p: 29,000원; 여우초밥 12p: 22,000원; 특선초밥 12p: 15,000원; 도로초밥 12p: 30,000원; 도로초밥 6p: 17,000원; 와규초밥 12p: 29,000원; 와규초밥 6p: 16,000원; 연어초밥 12p: 17,000원; 연어6p +활어6p: 17,000원; 모듬초밥 12p: 12,000원; 회덮밥: 10,000원; 미니멀초밥 8p: 8,000원; 데마끼 3p: 5,000원; 가마도로: 40,000원; 오도로: 38,000원"
여우골초밥홍대점,서울특별시 마포구 와우산로19길 19,37.55120459,126.9220283,"초밥,롤","특선초밥 12p: 참치2연어3광어2광어지느러미1장새우2장어2; 여우초밥: 도로4(참다랑어뱃살)연어뱃살4장새우4; 풀코스 (2인용): 130,000원; 도로초밥 6p: 17,000원; 와규초밥 12p: 29,000원; 와규초밥 6p: 16,000원; 회덮밥: 10,000원; 도로초밥-낱개: 3,000원; 장어초밥-낱개: 3,000원; 엔가와-낱개: 2,500원; 모듬초밥12p: 참치2연어2광어2찐새우2문어2계란2; 연어초밥 12p: 17,000원; 도로초밥: 도로12(참다랑어뱃살); 가마도로: 40,000원; 오도로: 38,000원"
여장군 망원점,서울특별시 마포구 방울내로9길 17,37.56117843,126.9033447,"육류,고기요리","살모듬 300g: 갈매기살,아구살,뽈살,항정살,꼬들살,혀밑살 6가지 부위를 섞어 1인분 300g 베스트메뉴!; 부속모듬 300g: 꼬치요리로 유명한 오소리감투,염통,유통,껍데기,돈설 5가지부위 섞어서, 1인분 300g!; 안살 300g: 20~30g만 생산되는 부드러운 식감의 고급부위; 육사시미: 매일 신선한 한우를 이용한 육사시미[뭉티기] 매실청 특제 소스와 담백한 맛을 느껴보세요; 육회: 신선한 한우를 사용한 여장군만의 비법인 간장소스베이스의 달콤한 육회입니다.; 비빔국수: 청양고춧가루를 사용한, 알싸한 매운맛!!; 갈메기, 꼬들살, 항정살, 뽈살, 아구살, 혀밑살: 살부위 단품 300g 1인분 한접시 13000원; 껍데기, 염통, 오소리감투, 돈설, 유통: 부속부위 단품 300g 1인분 한접시 13000원; 소막창: *일시판매중지* 쫄깃쫄깃 고소한 여장군 소막창 500g 한판 30,000원"
에그랑누룽지통닭구이,서울특별시 마포구 월드컵북로48길 56,37.5777928,126.8964898,"치킨,닭강정","누룽지 치즈 콘닭: 24,000원; 누룽지 모듬불닭: 24,000원; 누룽지통닭: 20,000원; 누룽지콘닭: 22,000원; 콘치즈: 8,000원; 먹태: 14,000원; 오뎅탕: 14,000원; 노가리(5마리): 10,000원; 황도: 6,000원; 생맥주(500cc): 5,000원"
에그셀런트 연남점,서울특별시 마포구 양화로23길 24,37.55952243,126.9251344,샌드위치,"[패스오더전용] 100원 아메리카노: 패스오더 앱 설치하면, 최소 주문 금액 없이 100원에 커피 주문+1,500원 쿠폰까지; 쉬림프칠리에그: 4,900원; 모짜렐라치즈에그: 5,900원; 오리지널에그: 3,900원; 미트스파게티에그: 4,500원; 더블베이컨햄에그: 4,500원; 불고기바베큐에그: 4,900원; 핫불고기에그: 4,900원; 핫치킨에그: 4,900원; 갈릭소세지에그: 4,900원; 아보카도에그: 5,900원; 언빌리버블에그: 6,500원; 아메리카노: 2,400원; 카페라떼: 3,400원; 바닐라라떼: 3,400원"
에그써티,서울특별시 마포구 동교로32길 19,37.56060621,126.9254131,양식,"풀코스 1인: 2일전예약필수(전화예약) 2인부터 주문가능; 에그써티코스 1인: 2인부터 주문가능 음료 + 카프레제 + 브루스케타 + 메인식사 + 디저트파나코타; 오믈렛라이스아라비아따: 16,000원; 오믈렛라이스크림: 16,000원; 그라나파다노콘파스타: 옥수수콘과 그라나파다노치즈를 버터에 볶아낸 파스타; 쉬림프아라비아따파스타: 17,000원; 쉬림프크림파스타: 17,500원; 까수엘라 파스타: 최고급올리브유를 갖은재료를 넣고 숙성시켜 새우를 곁들인 파스타; 스피나치 파스타: 신선한 시금치를 올리브유와 견과류를 넣고 믹싱한 파스타; 브루스케타 2pcs: 바게트위에 신선한 과일과 야채를 올려먹는 전채요리"
에뚜왈,서울특별시 마포구 성미산로 170,37.56414895,126.9245991,베이커리,"마들렌: 2,700원; 마들렌 글라세 레몬: 3,200원; 피낭시에: 2,700원; 크루와상: 3,700원; 뺑 오 쇼콜라: 4,100원; 퀸 아망: 4,000원; 사브레 오 쇼콜라: 2,700원; 마들렌 홍차: 3,100원; 마들렌 쇼콜라: 3,500원; 마들렌 글라세 레몬&홍차: 3,400원; 패션후르츠 코코넛: 3,300원; 마들렌 글라세 호우지차: 3,300원"
에이셉(ASAP),서울특별시 마포구 어울마당로 43,37.54906375,126.9204521,피자,"ASAP PIZZA S/L: 미국에서 직수입한 리얼 페퍼로니+특제 소스. 한번먹어본 사람은 잊을수없는 그 맛!; Korean flavor S/L: 한국을 대표하는 불고기에 매콤한 특제 소스와 마늘향까지 더해진 피자; Makgeolli: 이제는 피막시대! 트렌드에 앞서가 보세요~!; Pepperoni S/L: 피자 맛집의 기준은 페퍼로니라고하죠? Classic 피자의 정수를 보여드립니다; Hawaiian S/L: 달콤한 파인애플과 짭짤한 리얼 페퍼로니가 올라간 American pizza 1 pick; Cheese S/L: 진한 토마토소스와 자연산 모짜렐라 치즈 99%의 자신있는 Authentic 피자.; Hotchicken cream S/L: 크리미하고 매콤해서 자꾸 생각나는 치킨 피자; Sweet potato S/L: 부드럽고 스위트한 고구마와 크림치즈,아삭한 식감의 백김치가 들어가 느끼할 틈 없이없어요; Bacon potato S/L: 프라이즈감자를 사용하여 감칠맛을 극대화+베이컨+체다치즈 조합의 맛과 양을 동시에!; Bacon cheddar S/L: American 피자의 Bible. 토핑 필사기 베이컨+고소하고 짭짤한 체다치즈의 조합; Elote S/L: 통 슬라이스 옥수수와 달콤,짭짤,고소하고 진한 소스로 멕시코 스트릿푸드를 즐겨보세요!; Bulgogi S/L: Global 메뉴 불고기 토핑과 아삭한 양파+올립 한국피자의 대표메뉴; Supreme(Combination): 인기있는 토핑들을 ㅎ모아 만든 담백하고 푸짐한 정통 콤비네이션 피자"
에이셉피자 홍대점(ASAP PIZZA),서울특별시 마포구 월드컵북로16길 7,37.5628685,126.9146389,피자,"ASAP PIZZA S/L: 미국에서 직수입한 리얼 페퍼로니+특제 소스. 한번먹어본 사람은 잊을수없는 그 맛!; Korean flavor S/L: 한국을 대표하는 불고기에 매콤한 특제 소스와 마늘향까지 더해진 피자; Makgeolli: 이제는 피막시대! 트렌드에 앞서가 보세요~!; Pepperoni S/L: 피자 맛집의 기준은 페퍼로니라고하죠? Classic 피자의 정수를 보여드립니다; Hawaiian S/L: 달콤한 파인애플과 짭짤한 리얼 페퍼로니가 올라간 American pizza 1 pick; Cheese S/L: 진한 토마토소스와 자연산 모짜렐라 치즈 99%의 자신있는 Authentic 피자.; Hotchicken cream S/L: 크리미하고 매콤해서 자꾸 생각나는 치킨 피자; Sweet potato S/L: 부드럽고 스위트한 고구마와 크림치즈,아삭한 식감의 백김치가 들어가 느끼할 틈 없이없어요; Bacon potato S/L: 프라이즈감자를 사용하여 감칠맛을 극대화+베이컨+체다치즈 조합의 맛과 양을 동시에!; Bacon cheddar S/L: American 피자의 Bible. 토핑 필사기 베이컨+고소하고 짭짤한 체다치즈의 조합; Elote S/L: 통 슬라이스 옥수수와 달콤,짭짤,고소하고 진한 소스로 멕시코 스트릿푸드를 즐겨보세요!; Bulgogi S/L: Global 메뉴 불고기 토핑과 아삭한 양파+올립 한국피자의 대표메뉴; Supreme(Combination): 인기있는 토핑들을 ㅎ모아 만든 담백하고 푸짐한 정통 콤비네이션 피자"
에이콘팬트리(Acorn Pantry),서울특별시 마포구 성미산로29길 46,37.56597759,126.922019,"카페,디저트","딸기패션 파이타르트: 상큼달달한 딸기콩포트와 패션크림이 조회로운 딸기타르트(*시즌메뉴); 체리 포레누아 쌀케이크(글루텐프리): 직접만든 콩포트와 밀가루가 아닌 100% 쌀가루로만든 입에서 살살녹는 글루텐프리 쌀케이크; 유자망고 파이타르트: 직접만든 상큼한 유자콩포트와 달달한 망고크림이 조화를 이루는 망고타르트(*시즌메뉴); 다크초코 라즈베리 쇼콜라(글루텐프리): 묵직한 다크초콜릿케이크에 달달한 라즈베리콩포트, 바삭한크럼블이 조화로운 케이크; 우유한모 쌀케이크(글루텐프리): 진한 우유생크림이 가득 100%쌀가루로 만든 심플한것같지만 중독적인 쌀케이크(글루텐프리)"
에이포아시안키친,서울특별시 마포구 백범로 152,37.54474774,126.9482582,태국음식,"똠얌꿍: 20,000원; 왕새우팟타이: 13,000원; 뿌님팟봉커리: 소프트크랩과 코코넛크림으로 만든 커리소스; 비프레드커리: 11,000원; 칠리치킨: 21,000원"
에피소드,서울특별시 마포구 백범로1길 3,37.55436159,126.9373515,"카페,디저트",아메리카노: 산미 없는 고소한 아몬드 풍미의 아메리카노☕️; 카페 라떼: 맛있는 라떼를 찾으신다면 에피소드 라떼! 아몬드의 고소한 풍미와 초콜릿의 진득한 여운; 팥빙수(7-8월): 국내산 프리미엄 팥을 사용한 오리지날 팥빙수; 애플망고빙수(7-8월): 시원한 애플망고와 직접 만든 망고연유의 콜라보⭐️바스크치즈케이크와의 조합이 좋습니다
에피소드 네이버후드 신촌,서울특별시 마포구 신촌로16길 29,37.55409824,126.9347633,"카페,디저트","아메리카노 (Hot/Ice): 부드러운 에스프레소와 시원한 정수물, 얼음까지 가장 시원하게 즐길 수 있는 커피 음료; 에스프레소: 에피네의 에스프레소는 초콜렛 풍미와 부드러움이 풍부하게 느껴지는 진한 커피 음료"
엑소김밥,서울특별시 마포구 방울내로9안길 71,37.56022448,126.8995896,김밥,"치즈프랑크: 5,000원; 마요참치: 4,300원; 미니햄마리: 4,000원; 마요햄치즈: 4,500원; 멸치김치: 5,000원; 멸치: 4,500원; 와사비마요킹소세지: 4,500원; 치즈고추: 4,500원; 마요매콤짱아치: 4,500원; 마요엑소: 4,000원; 마요멸추: 4,500원; 마요멸치: 4,500원; 고추킹소세지: 4,500원; 치즈김치: 4,500원; 엑소: 3,200원"
우리둥지 공덕점,서울특별시 마포구 마포대로 190,37.55091293,126.9557917,종합분식,"둥지세트: 14,000원; 알품세트: 20,500원; 통새우섞어세트: 21,000원; 비벼밥세트: 14,000원; 등심돈까스: 7,000원; 왕모둠수제튀김: 5,900원; 순살치킨: 8,900원; 윙봉치킨: 10,900원; 국물떡볶이: 3,500원; 매운떡볶이: 7,000원"
우리분식,서울특별시 마포구 만리재옛길 40,37.5474141,126.9564968,종합분식,"라면: 4,000원; 김치칼국수: 6,000원; 유부칼국수: 6,000원; 라볶이: 5,000원; 떡만둣국: 6,000원"
우리식당,서울특별시 마포구 어울마당로 17-1,37.54696348,126.9193733,한식뷔페,1인 식사: 매일 바뀌는 메뉴로 다양한 반찬과 음식 맛 보실 수 있습니다
우리지금여기,서울특별시 마포구 희우정로 42-3,37.55094614,126.9066406,"카페,디저트","에스프레소: 3,000원; 아메리카노: 3,000원; 헤이즐넛아메리카노: 3,500원; 카푸치노: 4,300원; 헤이즐넛라떼: 4,300원; 카페라떼: 4,300원; 바닐라라떼: 4,300원; 민트모카라떼: 4,300원; 카라멜모카라떼: 4,300원; 연유라떼: 4,300원"
우리집식당,서울특별시 마포구 마포대로 63-8,37.54225534,126.9478214,한식,"보리밥정식: 된짱찌개가 같이 나옵니다; 백반: 된짱찌개가 같이 나옵니다; 김치찌개: 8,000원; 순두부찌개: 8,000원; 돌솥비빔밥: 된짱찌개가 같이 나옵니다; 콩국수: 여름별미; 콩국물: 여름별미; 삼겹살: 국산 200g 좋은고기 받아서 진짜 맛있음 고기질 최고입니다; 제육쌈밥정식: 국산 200g 된장찌개가 같이 나옵니다; 고추장불고기: 국산 150g; 북어찜정식: 된짱찌개가 같이 나옵니다; 더덕구이정식: 된짱찌개가 같이 나옵니다; 부침개: 10,000원"
우리집양념통닭,서울특별시 마포구 성암로3길 26,37.56843082,126.9110379,"치킨,닭강정","칠면조훈제: 15,000원; 치즈스틱: 10,000원; 낙지소면: 16,000원; 골뱅이소면: 13,000원; 무뼈닭발: 13,000원"
우리할매떡볶이(연남점),서울특별시 마포구 동교로 227-5,37.56057244,126.9236818,분식,"가래떡세트: 14,500원; 밀떡세트: 14,500원; 가래떡떡볶이: 4,500원; 밀떡볶이: 4,500원; 할매로제떡볶이: 5,500원; 할매튀김: 7,500원; 통오징어튀김: 7,500원"
우림집,서울특별시 마포구 토정로37길 13,37.5406778,126.9447091,"육류,고기요리","생주물럭: 48,000원; 돼지갈비: 19,000원; 생등심: 48,000원; 갈매기살: 21,000원; 삼겹살: 20,000원; 항정살: 22,000원"
우마담,서울특별시 마포구 독막로3길 30,37.54957605,126.9173552,"육류,고기요리","우마담 本 한우 오마카세: 140,000원"
우마담정석,서울특별시 마포구 양화로6길 57-16,37.54917572,126.9179155,"육류,고기요리","한우오마카세 Premium: 140,000원"
우미담,서울특별시 마포구 잔다리로 78,37.55452334,126.9164349,"곰탕,설렁탕","차돌곰탕: 고소하고 담백한 차돌을 듬뿍넣은 우미담의 대표메뉴; 곰탕: 정성것 달여낸 맑은소고기국물에 양지와 아롱사태를 듬뿍 넣은 고기가 듬뿍 곰탕; 곰탕면: 담백한 소고기 곰탕국물에 생쌀면이 어우러진 곰탕면; 양곰탕: 원기회복에 더없이 좋은 소의 양을 넣은 담백한 맛의 곰탕; 특곰탕: 양지, 사태, 차돌, 양이 듬뿍 들어간 특곰탕; 수육무침: 18,000~35,000원; 수육: 15,000~45,000원; 양무침: 15,000~25,000원; 녹두빈대떡: 6,000~18,000원; 군만두: 6,000원"
우미집 1947,서울특별시 마포구 동교로51길 91,37.56608106,126.9220632,한식,"꼬리곰탕: 78년 전통방식 그대로 삶이 녹아있는 싶고 담백한 맛. 쉽게 맛보기 힘든 귀한 보신음식; 꼬리찜,1947 (중)(2인): 1947년부터 동일하게 만들어온 우미집 전통 양념. 투박함으로 빚어낸 우미집 대표음식.; 꼬리 갈비찜 (중)(2인): 간장양념으로 만들어 아이들과 함께 부담없이 즐길 수 있는 달콤.담백한 맛이 일품; 꼬리수육: 진솔한 깊이가 녹은 맑은 고소함. 꼬리 본연의 깊은 맛을 그대로 즐길 수 있다.; 모듬수육전골: 선조들로 소꼬리. 우족. 사태를 한번에 즐길 수 있는 담백함이 일품인 보양음식의 보신음식; 우족탕: 78년, 전통방식 그대로. 임금님께 진상하던 수라상에 올라간 고급식재료.; 도가니탕: 78년 전통방식 조상들이 영양좋은 도가니를 더 맛있게 먹기 위해 만든 전통음식; 꼬리구이(예약메뉴) 270g: 최소 이틀전 예약 후 주문 가능한 메뉴입니다. 예약 후 취소는 어려운 점 양해 부탁드립니다; 아롱사태수육: 소 한마리당 두 덩어리만 나오는 귀한 부위. 콜라겐이 가득해 탱탱하고 쫀득한 맛이 일품; 우족초무침(한정메뉴): 콜라겐의 쫀득함이 듬뿍 담겨있는 우족과 새콤한 양념의 조화; 김치전: 국산 재료로 직접 담근 김치로 부쳐 기교 없는 매콤함과 바삭함; 감자채전: 국산 감자로 듬뿍 채썰어 부쳐 겉은 바삭하고 속은 포삭한 식감이 일품; 마늘볶음밥: 국산 통 마늘을 듬뿍 갈아 만들어 입안 가득 마늘의 풍미를 풍부하게 느낄 수 있다.; 소주(참이슬.처음.진로.새로): 5,000원; 맥주(카스.캘리): 5,000원"
우사미,서울특별시 마포구 마포대로14가길 4,37.54886852,126.9558994,소고기구이,"옛날맛잼잼불고기: 1인분(300g) ※2인분이상 주문가능; 소고기 보신전골(중): 中)38,000원 / 大)48,000원; 소고기 보신탕: 10,000원; 매운 소갈비찜(중): 中)41,000원 / 大)60,000원; 한우육회: 200g/ 한우육회입니다.; 옛날맛파불고기: 1인분(300g) ※2인분이상 주문가능; 한우육회비빔밥: 한우육회비빔밥입니다.; 뚝배기불고기: 뚝배기불고기입니다.; 고기감자만두: 고기감자만두입니다.; 투명쭈꾸미만두: 투명쭈꾸미만두입니다.; 투명김치만두: 투명김치만두입니다.; 물,비빔냉면: 시원한 맛의 물냉면,새콤달콤한 맛의 비빔냉면....."
용한삼겹살집,서울특별시 마포구 월드컵북로4길 13,37.55712844,126.9204943,한식,"호순이: 차돌순두부 +호박고기비빔밥을 한번에 즐길수 있는 용한식당 대표메뉴; 호그리: 참치김치짜그리+호박고기비빔밥을 한번에 즐길수 있는 용한식당 호순이와 양대산맥 메뉴; 차돌순두부: 8,000원; 차돌참치순두부: 9,000원; 차돌새우순두부: 9,000원; 새우순두부: 9,000원; 김돼지전골: 10,000원; 제그리: 국물있는제육짜글이와 호박고기 비빔밥.; 차돌순두부: 8,000원; 생삼겹살: 15,000원"
우가,서울특별시 마포구 월드컵북로43길 11,37.57466793,126.8957094,소고기구이,"와인 콜키지 무제한 Free: 와인콜키지 무제한 무료 이벤트 *점심메뉴 이용 시엔 불가 *와인잔 교체, 브로큰 차지 동일; 숙성 꽃등심(1++명품등급 100g기준): 54,000원; 숙성 차돌박이(1++명품등급 170g기준): 42,000원; 숙성 양념육회(1++명품등급 170g기준): 35,000원; 숙성 알등심 구이(130g): 고기류를 드신 이후에만 주문 가능한 메뉴입니다. 단품으로는 주문이 불가능합니다.; 숙성 등심 특수부위 구이(130g): 고기류를 드신 이후에만 주문 가능한 메뉴입니다. 단품으로는 주문이 불가능합니다.; 토장찌개: 10,000원; 소고기 크림볶음밥: 11,000원; 숙성 등심 불고기(Lunch): 30,000원; 숙성 육회비빔밥(Lunch): 19,000원; 한우 무국 정식(Lunch): 14,000원"
우가갈비탕,서울특별시 마포구 월드컵북로 400,37.58045216,126.8898954,갈비탕,"갈비탕+찜: 15,000원; 연포갈비탕: 16,000원; 만두갈비탕: 15,000원; 갈비찜(1인분): 23,000원; 매운갈비찜(1인분): 23,000원; 갈비전골(1인분): 23,000원; 얼큰우거지갈비탕: 15,000원; 낙지비빔밥: 9,000원; 코다리회냉면+갈비찜: 15,000원; 코다리회냉면: 10,000원; 물냉면: 9,000원; 물냉면 곱배기: 11,000원; 해물갈비찜 중: 55,000원; 해물갈비찜 대: 65,000원; 김치전: 5,000원"
우가촌설렁탕,서울특별시 마포구 만리재로 32,37.54441853,126.9550108,"곰탕,설렁탕","설렁탕: 10,000원; 특설렁탕: 13,000원; 갈비탕: 13,000원; 특갈비탕: 16,000원; 육계장: 10,000원; 도가니탕: 16,000원; 꼬리곰탕: 18,000원; 우족탕: 15,000원; 수육: 30,000원; 모듬수육: 55,000원; 도가니수육: 60,000원; 매운갈비찜: 60,000원; 한우생불고기: 20,000원; 버섯불낙전골 중: 35,000원; 버섯불낙전골 대: 45,000원"
우규,서울특별시 마포구 독막로3길 21,37.54933705,126.916838,이자카야,"새벽연어: 7kg급 이상 노르웨이산 숙성 생연어. 최적의 숙성과정을 거친 신선한 연어입니다; 유자꿀육회: 단, 한순간도 얼리지 않은 국내산 우둔살 사용합니다. 기존에 드셨던 냉동육회는 비교할 수 없습니다.; 수제 소고기 육전: 국내산 소고기로 직접 빚어 만든 수제 육전입니다.; 바지락술찜: 직접끓인 육수와 파스타면으로 만든 바지락술찜입니다.; 소고기 타다끼: 겉을 살짝 익혀, 특제소스에 적셔진 양파와 같이 드시면 더욱 맛있습니다.; 연어 샐러드 파스타: 새벽연어+냉파스타 조합에 특제 시그니처 소스가 곁들여져 있습니다.; 고추장 육회 소면: 비빔 소면에 국내산 신선한 육회가 더해진 환상의 조합; 한우모츠나베: 한우대창과 차돌이 들어간 얼큰한 모츠나베입니다.; 알탕: 얼큰한 국물의 안주를 원하시는 분들에게 강력 추천합니다.; 오뎅탕: 일본에서 공수한 오뎅과 진하게 끓여낸 육수를 더하여 깊은 맛을 느낄 수 있습니다.; 우규 가라아게: 새우치즈볼, 오징어튀김, 게맛살튀김, 우유튀김. 한번에 맛볼 수 있는 우규 가라아게입니다.; 치킨 가라아게: 신선한 기름에 빠싹하게 튀겨진 치킨 가라아게.; 하몽곶감: 요거트 베이스에 하몽과 곶감을 더해 마지막으로 먹기 좋은 디저트 안주; 사케동: 노르웨이산 숙성 생연어에 식사 한끼 어떠신가요; 육회비빔밥: 우규만의 특제 소스로 버무려진 육회 비빔밥입니다."
우동 이요이요,서울특별시 마포구 토정로31길 24,37.54221815,126.9436521,한식,"(New!) 돈카츠 카레 덮밥: 스크렘블 에그와 이요이요만의 카레, 돈카츠가 만나 풍부한 맛의 덮밥 !; 모듬 튀김 붓가케 우동: 붓가케와 모듬 튀김을 한 번에 즐길 수 있는 메뉴 !; 납작 우동: 쫀득함에 반하여 중독성이 강한 부동의 1위 냉우동 ! ( * 테이블 당 1개 주문 제한 ); 닭튀김 붓가케 우동: 부드러운 닭 다리살 튀김이 올려진 붓가케 우동 !; 새우 튀김 우동: 새우 튀김이 올려진 국물 우동 ! ( 새우 튀김 3pcs ); 어묵 튀김 우동: 어묵 튀김이 올려진 국물 우동 !; 붓가케우동: 다양한 토핑과 쯔유를 섞어 먹는 찬우동 !; 명란 버터 우동: 명란, 치즈의 짭조름함과 버터의 풍미로 자꾸만 생각나는 우동; (New!) 새우 크림 우동: 탱글한 왕새우, 수제 베이컨 그리고 크림 소스의 완벽 조합 !; 자루 우동: 면 본연의 맛을 느낄 수 있는 우동; 가케 우동: 조미료를 사용하지 않고 가쓰오부시, 멸치 등을 24시간 동안 찬물에 우려낸 일품 국물 우동; 카레우동: 오직 이요이요에서만 맛볼 수 있는 비법 카레 !; (New!) 모듬 튀김: 새우, 닭, 단호박, 당근, 가지 5가지 모듬 튀김 !; (New!) 새우 튀김 2pcs: 탱글하고 바삭한 새우 튀김 !; 고로케 2개: 생크림의 녹진함과 청양 고추 매콤함이 만나 완벽한 조합"
우동가조쿠(홍대점),서울특별시 마포구 양화로19길 18,37.55831453,126.9240878,"우동,소바","가조쿠우동: 새우튀김이 토핑된 가스오부시 베이스의 뜨거운 국물이 일품인 사누키 우동; 붓가케우동: 생면의 쫄깃함과 부드러운 면을 가장 맛있게 즐기실수있는 차가운 우동; 키츠네우동: 맛있는 유부가 토핑된 가쓰오부시 베이스의 뜨거운 국물의 우동; 치즈육육우동: 육육우동에 치즈를 듬뿍 토핑하여 치즈의 고소함과 매운맛을 부드럽게; 육육우동: 약간 얼큰하고 매운맛의 스테미너 만점인 고기우동; 라유멘: 9,000원; 면추가: 2,500원; 돈카츠정식: 11,000원; 카레우동: 10,000원; 장어덮밥: 16,000원; 유부 초밥(2개): 토핑 메뉴; 새우튀김(1개): 토핑 메뉴; 감자고로케(2개): 토핑 메뉴; 돈카츠 토핑: 토핑 메뉴"
우동카덴,서울특별시 마포구 양화로7안길 2-1,37.55168158,126.9150726,"우동,소바","가케우동: 8,000원; 덴뿌라우동: 11,000원; 붓가케우동: 8,500원; 유부우동: 10,000원; 모시조개 우동: 11,000원; 카레우동: 11,000원; 돈까츠 카레우동: 13,000원; 새우크림 우동: 13,000원; 카쯔네우동(유부): 10,000원; 아사리우동(모시조개): 11,000원; 카키아게우동: 11,000원; 타마고토자우동: 10,000원; 멘타이코(명란)앙카케타마코 토지우동: 12,000원; 돈카츠 카레우동: 13,000원; 에비후라이 카레우동: 13,000원"
우뜸,서울특별시 마포구 연희로1길 59-2,37.56158908,126.9264856,소고기구이,"와규특수: 와규부채살,와규안창살,와규꽃살특수부위3종입니다; 와규트러플짜파게티: 와규, 트러플, 그라노파다노치즈와 짜파게티의 환상조합; 와규부채살: 적당한육향 뛰어난마블링 부드러운식감입니다; 와규모듬: 와규등심,와규갈비살,와규등심추리3종; 와규살치살: 소고기최고의 특수부위 마블링과 육향이풍부합니다; 와규안창살: 소한마리당 700~800그램 정도만 나오는 특수부위입니다; 와규갈비살: 갈비뼈사이에 살코기부위로 쫄깃한식감이일품입니다"
우리닭갈비,서울특별시 마포구 어울마당로 136-5,37.55596554,126.9253778,닭갈비,"닭갈비: 11,000원; 쫄면 or 우동 or 라면사리: 2,000원; 모짜렐라치즈 or 치즈떡 or 떡사리: 2,000원; 볶음밥: 2,000원; 공기밥: 1,000원"
우리동네 가족국수,서울특별시 마포구 월드컵북로9길 34,37.55873186,126.9155251,국수,"쌀떡국: 8,000원; 비빔국수: 7,000원; 고기한접시: 5,500원; 잔치국수: 6,000원; 부추국수: 7,000원; 냉콩국수: 여름 특선 냉 콩국수; 오뎅국수: 7,000원; 물만두: 4,000원; 멸치 육수1.2리터: 5,000원"
용강국밥,서울특별시 마포구 월드컵북로16길 41,37.56319215,126.9165245,국밥,"돼지국밥: 10,000원; 순대국밥: 10,000원; 순대만국밥: 10,000원; 내장국밥: 10,000원; 섞어국밥: 10,000원; 모듬국밥: 11,000원"
용궁설렁탕,서울특별시 마포구 백범로 48,37.55034866,126.9379637,"곰탕,설렁탕","설렁탕: 9,000원; 도가니탕: 13,000원; 설렁술국: 15,000원; 도가니수육: 45,000원; 양지수육: 40,000원; 모듬수육: 45,000원"
용길이네 소머리국밥,서울특별시 마포구 월드컵북로 396,37.57949646,126.8903226,국밥,"소머리국밥: 9,000원; 설렁탕: 8,000원; 스지소머리국밥: 11,000원; 스지설렁탕: 10,000원; 소머리국밥특: 12,000원; 설렁탕특: 10,000원; 스지소머리국밥특: 15,000원; 스지설렁탕특: 13,000원; 소머리수육(소): 30,000원; 소머리수육(대): 40,000원"
용까쓰,서울특별시 마포구 도화길 33,37.54113455,126.9494553,돈가스,"치즈(냉)모밀정식: 16,500원; 생선(냉)모밀정식: 16,500원; 용까쓰(냉)모밀정식: 16,000원; 등심(온)우동정식: 13,500원; 치즈까쓰: 13,000원; 용까쓰: 12,500원; (냉)모밀: 10,000원; 경양안심(냉)모밀정식: 16,000원; 경양등심(냉)모밀정식: 15,000원; 안심(냉)모밀정식: 15,500원; 등심(냉)모밀정식: 14,500원; 경양안심(온)모밀정식: 16,000원; 경양등심(온)모밀정식: 15,000원; 치즈(온)모밀정식: 16,500원; 생선(온)모밀정식: 16,500원"
용마루굴다리껍데기,서울특별시 마포구 만리재옛길 64,37.54913094,126.9580685,"육류,고기요리","돼지갈비: 9,000원; 돼지꼬리: 10,000원; 돼지껍데기: 9,000원; 조개탕: 9,000원; 오징어: 10,000원"
용머리감자탕,서울특별시 마포구 망원로 19,37.55634559,126.8991146,감자탕,"감자탕 (대): 33,000원; 감자탕 (소): 23,000원; 닭볶음탕 (대): 43,000원; 닭볶음탕 (중): 33,000원; 칼국수: 8,000원; 콩국수: 8,000원; 감자탕 중: 28,000원; 뚝배기: 7,000원"
용머리횟집,서울특별시 마포구 희우정로 122-1,37.55560122,126.9000763,생선회,"광어 중: 25,000원; 우럭 대: 39,000원; 놀래미 중: 35,000원; 연어 중: 25,000원; 도미 1kg: 40,000원"
용싸키친,서울특별시 마포구 서강대길 11,37.54949172,126.9398658,한식,"철판치즈김치볶음밥: 9,500원; 소고기차오면: 10,000원; 스테이크덮밥: 9,500원; 닭갈비덮밥: jtbc 잘먹겟습니다 샘오취리 인생메뉴; 제육갈비덮밥: 9,000원; 나시고랭: 9,500원; 돈가스: 9,000원; 부대찌개: 9,000원; 차돌김치찌개: 10,000원; 아쿠아돈가스: 9,500원; 해물볶음우동: 9,500원; 카레우동: 8,000원; 돈가스카레우동: 9,500원; 새우돈가스 카레: 9,500원; 돈가스카레: 9,000원"
요나끼,서울특별시 마포구 마포대로 63-8,37.54225534,126.9478214,돈가스,"제육직화: 8,000원; 오징어직화: 8,000원; 등심수제돈까스: 8,000원; 등심카레돈까스: 9,000원; 철판치즈돈까스: 10,000원; 황태해장국: 8,000원; 알밥: 7,000원; 카페덮밥: 7,000원; 유부초밥: 5,000원; 가께우동: 5,000원; 유부우동: 6,000원; 오뎅우동: 7,000원; 김치우동(우동+밥): 8,000원; 판모밀(냉): 계절메뉴; 비빔모밀: 계절메뉴"
요녀석 파스타 마포점,서울특별시 마포구 홍익로 10,37.55372523,126.9236938,"스파게티,파스타전문","까르보나라 파스타: 특제 크림소스와 베이컨의 역대급 콜라보 파스타; 목살 필라프: 두툼한 목살과 각종 야채를 셋 불에 볶아내, 불맛 가득한 필라프; 바질 베이컨 크림 리조또: 산뜻한 바질과 꾸덕한 크림의 만남; 바질 베이컨 크림 파스타: 산뜻한 바질과 꾸덕한 크림의 만남; 바질 알리오 파스타: 산뜻한 바질과 오일 파스타의 만남; 땡초 크림 리조또: 꾸덕한 크림과 알싸한 땡초의 꿀조합 리조또; 땡초 크림 파스타: 꾸덕한 크림과 알싸한 땡초의 꿀조합 파스타; 베이컨 김치 필라프: 매콤한 김치와 베이컨을 듬뿍 넣어 강불에 볶아냈다! 한국인의 입맛 제대로 저격; 명란 새우 필라프: 탱글한 새우가 들어간 단짠단짠 필라프와 짭쪼름하고 고소한 명란의 환상적인 궁합; 명란 알리오 올리오: 향긋한 마늘과 짭쪼름하고 고소한 명란의 환상적인 궁합; 명란 베이컨 크림 리조또: 부드러운 크림과 짭쪼름하고 고소한 명란의 만남; 명란 새우 크림 파스타: 부드러운 크림과 짭쪼름하고 고소한 명란의 만남; 불고기 샐러드 파스타: 신선한 샐러드에 단짠단짠 불고기가 조화를 이룬 샐러드 파스타; 새우 샐러드 파스타: 탱글한 새우살로 건강한 감칠맛을 같이 즐길 수 있는 샐러드 파스타; 샐러드 파스타: 여름을 겨냥한 시원하면서 프레쉬한 음식이 먹고 싶을 때 상큼하게 즐기는 샐러드 파스타"
요정,서울특별시 마포구 동교로34길 11,37.56103516,126.9250221,"카페,디저트","에스프레소: 3,300원; 아메리카노: 3,000원; 카페라떼: 3,600원; 카푸치노: 3,700원; 바닐라라떼: 4,000원"
요츠야,서울특별시 마포구 독막로5길 28,37.54922791,126.9186956,일식당,"텐동요츠야: 10,500원; 스폐샬텐동: 16,500원; 에비죠텐동: 13,500원; 전복텐동: 14,500원; 토쿠죠텐동: 14,500원; 에비텐쥬: 11,000원; 요츠야텐동: 9,500원; 콘사라다: 2,000원; 포테토사라다: 2,000원; 온천계란: 1,000원"
용가,서울특별시 마포구 마포대로11길 7-6,37.54859714,126.9533454,중식당,"코스 A: 4인이상; 코스 B: 4인이상; 코스 C: 4인이상; 마파두부: 25,000원; 오향장육 소: 25,000원"
와하하(WHH),서울특별시 마포구 희우정로16길 39,37.55480583,126.9040718,"카페,디저트","아메리카노: 엄선된 스페셜티 블렌드 원두로 적절한 산미와 크림같은 보디감으로 기분 좋은 맛을 선사합니다; 크룽지: 4,000원; 크루키 아이스크림: 6,500원; 크룽지 아이스크림: 5,500원; 스모어초코/딸기치즈케이크 아이스크림: 6,000원; 크로플플래터: 11,000원; 디카페인 아메리카노: 해발 1,600M 이상의 고도에서 재배된 과테말라 SHB 등급 원두 디카페인"
완도막회집,서울특별시 마포구 동교로 36,37.55235859,126.9063995,생선회,"막회: 25,000원; 특막회 A: 50,000원; 특막회 B: 70,000원; 민어: 변동; 방어: 변동; 돔머리구이: 25,000원; 메로구이: 25,000원; 알밥: 7,000원"
완백부대찌개 상암디디엠씨(DDMC)점,서울특별시 마포구 매봉산로 75,37.57845304,126.8928994,"찌개,전골",완백부대찌개: 저희 매장의 기본 부대찌개입니다
완차이면가,서울특별시 마포구 월드컵북로54길 25,37.58209253,126.8889879,중식당,"홍콩우육탕면: 9,200원; 청경채도가니양지탕면: 11,000원; 군만두: 7,000원; 찐만두: 7,000원; 완탕면: 11,000원"
완행식당,서울특별시 마포구 신촌로4길 11,37.55736606,126.9287871,한정식-일반,"숙성오겹살(180g): 14,000원; 차돌박이(150g): 11,000원; 통목살(180g): 14,000원; 부대찌개전골: 9,000원; 차돌된장찌개: 9,000원; 김치찌개전골: 9,000원"
왔쏘 홍대점,서울특별시 마포구 독막로7길 20,37.5487006,126.9191672,소고기구이,"부채살: 15,000원; 토시살: 15,000원; 갈비살: 15,000원; 꽃등심: 15,000원; 성인: 28,900원; 초등학생: 19,000원; 36개월이상: 9,000원"
왕돈까스왕냉면,서울특별시 마포구 홍익로6길 52,37.55630805,126.924404,돈가스,"옛날수제돈가스: 8,000원; 물냉면, 비빔냉면: 6,500원; 왕돈가스, 치즈돈가스: 8,000원; 냉모밀, 비빔모밀: 7,500원; 야채비빔밥: 6,000원; 등심돈가스: 7,500원; 고구마치즈돈가스: 8,000원; 치킨가스: 8,000원; 쫄면: 6,500원; 떡삼/물,비빔냉면: 8,500원"
왕손피자,서울특별시 마포구 독막로38길 10,37.54589188,126.9413539,피자,왕손반반피자: 한판에 두가지맛 마음대로 골라먹는 피자 M19.900원 L22.900원
왕수제돈까스,서울특별시 마포구 망원로 62,37.55695545,126.9036555,돈가스,"왕돈까스: 8,000원; 매운돈까스: 8,500원; 치킨까스: 8,500원; 생선까스: 9,000원; 돈까스정식: 9,500원; 고구마치즈돈까스: 9,500원; 오리지널함박: 9,000원; 까르보나라: 8,000원; 칠리게살스파게티: 9,500원; 쉬림프로제스파게티: 9,500원; 오븐그라탕: 8,000원; 알리오올리오: 7,500원"
왕초떡볶이,서울특별시 마포구 월드컵로13길 17,37.55552997,126.9092987,떡볶이,"떡볶이: 4,000원; 찰순대: 4,500원; 수제튀김(3개): 3,000원; 야체김밥: 2,500원; 새우튀김: 1,200원; 고추(고기말이)튀김: 2,000원"
외백,서울특별시 마포구 도화2길 4,37.54028043,126.9486525,중식당,"유산슬밥: 18,000원; 잡탕밥: 18,000원; 새우튀김: 35,000원; 깐쇼새우: 38,000원; 면보하: 30,000원; 탕수육: 25,000원; 짜장면: 7,000원; 짬뽕: 8,000원; 삼선간짜장: 11,000원; 삼선짬뽕: 13,000원; 기스면: 8,000원; 고추짬뽕: 13,000원; 군만두: 8,000원; 짬뽕밥: 8,000원; 매운삼선간짜장: 10,000원"
외양간,서울특별시 마포구 독막로18길 12,37.54729182,126.9237594,"육류,고기요리","특수부위모듬: 13,000원; 키조개관자+묵은지: 10,000원; 차돌된장라면: 6,000원; 차돌볶음밥: 4,000원"
요고요고,서울특별시 마포구 월드컵북로 381,37.57795622,126.8898871,종합분식,"치킨떡볶이: 8,000원; 돈까스 떡볶이: 7,000원; 치즈 떡볶이: 7,000원; 수제 튀김 세트: 왕 만두,왕 김말이,왕 오징어 튀김 세트; 감자/고구마 고로케(4개): 모든 음식은 수제로 직접 만들고 있습니다"
올더플레이트,서울특별시 마포구 동교로38길 5,37.56183337,126.9246145,양식,"채끝 스테이크200g(굽기 미디엄): 28,000원; 꼬꼬 플레이트: 비법소스와 직화로 조리한 닭갈비와 감바스,또띠아,빵,감자튀김,6가지 소스와 같이 제공됩니다; 반반 플레이트: 닭갈비(250g)와한돈목살(200g)구이 감바스,빵,또띠아,감자튀김,6가지소스가 제공됩니다; 꿀꿀 플레이트: 7일숙성한돈목살구이(400g)와 야채구이,감바스,빵,또띠아,감자튀김,6가지소스가 제공됩니다; 채끝스테이크 투움바 파스타(살짝매콤): 비법 고추장 소스로 조리한 매콤 크림 파스타와 채끝 스테이크와의 최고의 만남; 차돌 짬뽕 크림 파스타(신라면맵기): 불맛가득 짬뽕과 크림 파스타의 부드러운고 칼칼한 맛의 파스타; 불고기 트러플 크림 리조또: 직접 양념한 불고기와 트러플오일의향이 느껴지는 단짠 리조또; 명란 버터 오일 파스타(살짝매콤): 저염 백명란을 무염버터와 특제소스로 조리해 깊은 풍미를 한층 더 업그레이드 된 오일 파스타; 매콤 씨푸드 필라프(매콤): 각종 해산물을 매콤한 소스로 볶아낸 필라프(맵기 신라면정도); 불고기 깻잎파스타(살짝매콤): 은은하게 매콤한 오일파스타에 직화 바싹불고기와 깻잎의 찰떡궁합; 봉골레 파스타(살짝매콤): 백합조개를 한가득 넣은 살짝매콤한 파스타; 고르곤졸라 크림 파스타: 꾸덕하고 깊은 풍미의 고르곤 치즈가 들어간 크림 파스타; 쉬림프 로제 파스타: 먹기좋게 손질된 새우 5미와 직접졸여낸 토마토소스와 크림소스의 완벽한 비율의 로제 파스타; 치킨스테이크 청양마요 파스타: 오븐에 구운 치킨과 마요네즈로만 조리한 청양고추가 들어간 매콤한 파스타; 씨푸드 토마토 파스타(살짝매콤): 직접끓여낸 토마토소스와 각종 해산물로 조리한 깔끔한 파스타"
올드타운 홍대점,서울특별시 마포구 독막로3길 35,37.54988195,126.9172999,이자카야,"모듬 숙성회: 제철 숙성회 사시미 12종 中 - 48,000￦ 大 - 69,000￦; 민어 수육 전골: 장시간 고아낸 민어 뼈 육수와 담백한 민어의 순살 수육 전골; 한우 육사시미 & 다시마 숙성 연어: 육향 진한 한우 1++ 설도 사시미와 감칠맛이 풍부한 다시마 숙성 연어회; 야키토리 5종: 닭의 다리, 날개, 안심, 목살, 염통 등을 직화로 정성스럽게 구워, 불향 가능한 모둠꼬치; 고등어 샤프론 파스타: 바삭하게 구운 고등어와 샤프론을 곁들인 레몬버터 파스타; 우나기 테마끼: 민물 장어 구이와 장어뼈 데리야끼로 양념한 밥을 바삭한 김에 싸먹는 메뉴; 카이센 테마끼: 신선한 사시미 5종과 아보카도 초밥 밥을 바삭한 김에 싸먹는 메뉴; 단새우 테마끼: 신선한 단새우와 아보카도, 초밥 밥을 바삭한 김에 싸먹는 메뉴; 전복 내장 파스타: 신선한 완도 전복으로 만든 녹진한 맛의 파스타; 야끼소바: 베이컨과 새우, 수제소스로 맛있게 볶아낸 야키소바; 제철 민어솥밥: 제철 민어구이와 오징어, 밤, 은행, 곤드레를 넣어 만든 솥밥 (30분 소요); 양갈비 화로 구이: 특제 소스에 재워 잡내를 잡은 부드러운 양갈비 구이; 제주 고사리 파스타: 국내산 고사리와 들깨가 듬뿍 들어간 고소한 맛의 파스타; 단새우 비스큐 파스타: 단새우와 내장, 껍질을 이용해 만든 녹진한 소스를 사용한 파스타"
올랑올랑,서울특별시 마포구 동교로46길 25,37.56232516,126.9261808,퓨전음식,"생연어국수: 국수처럼 긴 생연어를 감칠맛있는 특제쯔유소스에 찍어먹는 연어국수; 통베이컨 로제파스타: 로제파스타와 통베이컨의 만남; 아부리동: 연어,관자,새우,노른자를 토치해 올린 덮밥; 생연어 냉소바: 푸짐한 생연어와 면치기하는 냉/양념소바; 후토마끼 한줄: 연어,크레미,새우튀김,오이,우엉,단무지,계란말이 등 다양한 재료들로 입안이 풍성한 푸토마키; 올랑올랑 연어롤: 크레미 마요 가득한 누드롤 위에 토치된 두툼한 연어 & 타르타르소스의 양파채와 곁들이면 기.절.초.풍~; 육회양념소바: 쫀득한 육회와 매콤새콤달콤한 양념소바의 만남; 연어꽃덮밥: 예쁜 그릇 위에 연어가 꽃처럼 수북히 펼쳐져 먹기 아까운 덮밥; 연어새우장덮밥: 특제간장소스에 재운 큼직한 새우장과 생연어 덮밥; 빼쉐 (얼큰국물파스타): 17,900원; 불향가득 육회롤: 불향 가득한 육회와 캘리포니아롤의 만남"
올레쭈꾸미,서울특별시 마포구 동교로 282,37.56419449,126.9266407,주꾸미요리,"올레 쭈꾸미: 현금가 6000원; 묵밥: 5,000원; 묵사발추가: 2,000원; 쭈꾸미볶음(대): 30,000원; 쭈꾸미볶음(중): 20,000원"
올리앤로렌스,서울특별시 마포구 와우산로29길 14-19,37.55533899,126.9288161,양식,비건메뉴준비중(문의주세요): 일정한 주기없이 비건메뉴는 한가지 혹은 두가지정도 메뉴에 추가됩니다.; 스테이크: 변동; 파스타: 변동
올터 쭈꾸미,서울특별시 마포구 신촌로14길 29,37.55473166,126.9333972,주꾸미요리,"쭈꾸미철판: 10,000원; 쭈+낙지철판: 11,000원; 쭈+삼겹철판: 11,000원; 낙+삼겹철판: 12,000원; 모둠철판: 13,000원; 통낙지비빔밥: 8,000원; 황태탕: 8,000원; 옛날육개장: 8,000원"
옹기,서울특별시 마포구 마포대로 144 태영빌딩,37.54700135,126.9537568,와인,배달/포장: 배달/포장 음식 이용 가능; 와인: 각 국가별 떠오르고 있는 rare wine이 구비되어 있습니다.
옹달샘 합정 고깃집,서울특별시 마포구 독막로2길 12,37.54798231,126.9145264,돼지고기구이,"제주 흑돼지 한근(600g): 60,000원; 제주 오겹살/목살: 20,000원; 제주 항정살 170g: 20,000원; 제주 갈매기살: 18,000원; 꽁치김치찌개: 7,000원; 햄 김치찌개: 7,000원; 김치찌개: 7,000원; 냉면: 7,000원; 계란말이: 6,000원; 콩줄기볶음: 6,000원"
와당김밥,서울특별시 마포구 신촌로34길 37,37.55563682,126.9550467,김밥,"와당김밥: 4,000원; 참치김밥: 4,500원; 치즈김밥: 4,500원; 스팸김밥: 4,500원; 진미채김밥: 4,500원; 누드돈까스김밥: 5,000원; 와당라면: 4,000원; 해물라면: 5,000원; 와당우동: 5,500원; 떡만두국: 8,000원; 떡볶이: 3,500원"
와우,서울특별시 마포구 마포대로 229,37.55445478,126.9568967,한식,"기본 상차림: 기본 상차림입니다; 제페리아: 드라이 레드와인; 세레소: 드라이 레드와인; 시그니쳐 하이볼: 7,000원; 된장찌개: 6,000원; 계란찜: 8,000원; 비빔국수: 7,000원; 로얄샬루트21년: 위스키; 돔페리뇽: 650,000원; 모에샹동: 130,000원; 그란데 포르테 비노 로쏘: 드라이 레드와인; 비아이 스푸만테: 드라이 스파클링 와인; 비아이 산지오베제: 드라이 레드와인; 잭콕: 7,000원; 산토리 하이볼: 7,000원"
와우골,서울특별시 마포구 신촌로14길 39,37.55435881,126.9330177,"육류,고기요리","제육볶음: 9,000원; 청국장: 8,000원; 순두부찌개: 7,000원; 오징어볶음: 10,000원; 부대찌개(2인이상): 8,000원; 김치찌개: 8,500원"
와우끝집,서울특별시 마포구 와우산로 162,37.55525669,126.9306734,생선회,"숙성회 2인: 60,000원; 숙성회 3인: 90,000원; 숙성회 4인: 120,000원; 김치라면: 7,000원; 숙성회마끼: 7,000원"
옥자회관,서울특별시 마포구 성암로 219-6,37.5788436,126.895161,돈가스,"등심돈까츠: 13,000원; 치즈돈까츠: 14,000원; SET 1: 14,000원; SET 2: 15,000원; SET 3: 16,000원; 안심 돈까츠: 15,000원; 아기돼지 삼형제(등심+치즈안심+안심): 19,000원"
옥천올갱이,서울특별시 마포구 마포대로6길 10,37.54531245,126.9531877,한식,"올갱이 국: 10,000원; 올갱이무침 중: 35,000원; 올갱이술국 중: 35,000원; 빼먹는 올갱이: 10,000원; 김치전올갱이: 15,000원; 올갱이국 특: 12,000원"
옥탑방 부엉이,서울특별시 마포구 독막로9길 43,37.55015459,126.9205156,요리주점,"치즈 밀떡 순살 닭볶이: 25,000원; 와인숙성 훈제 오리구이: 23,000원; 소시지 & 감자 샐러드 플레이트: 19,000원; 까망베르 치즈구이: 16,000원"
옥향루,서울특별시 마포구 방울내로7길 14,37.56053949,126.9024599,중식당,"짜장면: 인상가격.; 우동: 8,000원; 군만두: 6,000원; 찹살탕수육: 17,000원; 세트메뉴: 25,000원; 짬뽕밥: 9,000원"
온다옴,서울특별시 마포구 백범로 152,37.54474774,126.9482582,한식,"매운갈비찜: 캡사이신 없이 매운맛이 맛있는 돼지갈비, 안주와 밥이 함께 해결~ 만두, 납작당면, 떡; 뚝배기매운갈비: 캡사이신 없이 매운맛이 맛있는 돼지갈비. 돼지갈비와 납작당면; 뚝배기로제갈비: 10,500원; 차돌된장찌개: 차돌박이가 들어간 된장찌개; 메밀전병: 6,000원; 로제매운갈비찜: 13,000원; 점심계란밥: 1,000원; 치즈계란찜 (저녁): 6,000원; 어묵탕: 15,000원"
온달만두분식,서울특별시 마포구 백범로 109,37.5473527,126.9434948,종합분식,"꽈배기 2개: 1,000원; 찹쌀도너츠: 1,000원; 생도너츠: 1,000원; 팥도너츠1개: 1,000원; 사라다빵 1팩 3개: 3,000원; 찐빵 3개: 10개 7000; 고기/김치만두 10개: 3,500원; 야채고로케 1개: 1,000원; 소세지빵 1개: 1,000원"
온돌,서울특별시 마포구 양화로6길 65,37.54874234,126.9178199,"육류,고기요리","매운소갈비찜 1인분: 안매운맛/매운맛/아주매운맛/무진장매운맛 소갈비찜입니다!!; 계란말이: 10,000원; 삼겹살: 16,000원; 산낙지: 33,000원; 연포탕: 38,000원; 치즈계란말이: 13,000원; 누룽지: 7,000원; 해물파전: 20,000원; 사리: 당면사리/떡사리/라면사리/감자사리; 음료: 콜라/사이다/환타파인애플; 육개장: 11,000원; 김치찌개: 10,000원; 동태탕: 10,000원"
온미동,서울특별시 마포구 월드컵북로4길 95,37.55996625,126.9234076,일식당,"사케동: 15,000원; 안심카츠: 14,500원; 규낫또동: 16,000원; 가츠동: 매일 손질하여 숙성한 안심,등심 가츠를 주문즉시 조려낸 양파와 간장을 올린 식사입니다.; 부타동: 11,000원; 텐동: 12,000원; 우니동: 39,000원; 사케우니동: 25,500원; 스키야키: 17,000원; 니꾸 우동: 11,000원; 새우 튀김 우동: 10,000원; 수제 모짤렐라 치즈스틱: 6,000원; 에비 후라이: 7,000원; 우나기동: 30,000원; 연어뱃살덮밥: 17,000원"
온반,서울특별시 마포구 백범로 131,37.54637347,126.9458398,한식,"온반한상: 12,800원"
온블랙94,서울특별시 마포구 와우산로 39-14,37.54827948,126.9223872,"스테이크,립","티본스테이크: 2.5도의 일정한 온도, 물의 수압을 이용한 워터에이징 기법의 시그니처 티본 스테이크입니다!; 토마호크L: 128,900원; 우니와 단새우 백명란구이: 우니와 단새우, 백명란구이, 감태, 날치알 등; 토마호크M: 118,900원; 소주: 4,500원; 마늘새우필라프: 12,900원; 베이컨크림리조또: 12,900원; 치즈플레터: 23,800원; 알리오감바스: 17,900원; 온블랙피자: 23,900원; 치즈쉬림프토마토스튜: 16,900원; 토마호크: 189,000원; 포터하우스: 69,800원; 엘본스테이크: 59,800원"
온샐러드&포케,서울특별시 마포구 모래내로1길 17,37.56528282,126.9028771,"다이어트,샐러드","수비드 닭가슴살 현미밥 (매콤): 수비드한 닭가슴살을 온샐러드만의 매콤한 수제소스로 요리한 닭가슴살 현미밥; 구운 새우 포케 현미밥: 담백하고 건강한 새우를 온샐러드만의 특제소스와 함께 즐길 수 있는 새우 포케; 수비드 목살 현미밥: 직접 수비드하여 더욱 촉촉한 목살과 따끈한 현미귀리밥으로 든든한 목살 현미밥; 보쌈 포케 현미밥: 트레이너가 건강을 선물하기 위해 개발한 전세계 최초 보쌈수육포케와 건강한 수제 쌈장소스; 연어 포케 현미밥: 고소하고 담백한 연어를 온 샐러드만의 특별한 특제소스와 함께 즐길수 있는 연어 포케; 비프 스테이크 현미밥: 프리미엄 등급의 육즙 가득한 부채살을 아스파라거스와 다양한 토핑과 함께 즐길 수 있는 포케; 단호박 고구마 샐러드: 쫀득한 고구마와 수제 단호박 한 스쿱이 올라간 베이직 샐러드; 단호박 고구마 무스무스 샐러드: 수제 단호박 무스와 고구마 무스가 만나 완벽한 조화를 이룬 무스무스 샐러드; 수비드 닭가슴살 샐러드(빵+단호박): 직접 수비드한 부드러운 닭가슴살과 신선한 야채가 들어간 샐러드 (현미밥과 호밀빵 중 선택); 갈릭바질 쉬림프 파스타 샐러드: 온샐러드의 수제 갈릭바질 소스와 새우의 환상적인 만남으로 탄생한 파스타샐러드; 수비드 목살 샐러드(빵+단호박스프레드: 직접 수비드한 촉촉한 목살과 신선한 야채 토핑이 들어간 샐러드 (현미밥과 호밀빵 중 선택); 생바질 연어 파스타 샐러드: 오랜 기간 연구 끝에 탄생한 수제 생바질을 갈아 만든 생연어 파스타 샐러드; 감바스 파스타 샐러드: 새우, 마늘, 버섯이 들어간 매콤한 감바스 오일 파스타를 함께 즐길 수 있는 샐러드; 아보카도 연어 샐러드: 슈패리얼 등급의 신선한 생연어와 부드러운 아보카도가 올라간 건강 가득 샐러드; 무가당 카야 토스트: 수제로 직접 만든 무가당 카야잼 토스트"
온정,서울특별시 마포구 동교로 262-10,37.56268008,126.9255758,일식당,"연어 덮밥 (사케동): 14,000원; 가라아게동: 눈꽃치킨덮밥; 대방어덮밥: 하루 한정 메뉴~~; 간장새우사케동: 귀요미새우연어덮밥; 냉모밀: 10,900원; 에비가츠동: 12,900원; 카이센동: 22,500원; 규동: 10,500원; 따따불 가라아게동: 19,500원; 새우 냉모밀(새우2p): 16,900원"
온정텐동,서울특별시 마포구 양화로23길 10-10,37.55930296,126.9257714,일식당,"온정텐동: 12,500원; 온정커플세트: 36,000원; 이까부타텐동: 16,500원; 토리텐동: 13,000원; 야사이텐동: 8,000원; 나가사끼해물나베+가라아게튀김: 15,000원; 니혼돈부리나베: 14,500원; 해물야끼우동: 12,500원; 얼큰어묵우동+가라아게튀김: 12,500원; 어묵우동+가라아게튀김: 12,000원; 차돌우동단품: 8,500원; 판모밀정식+가라아게튀김: 14,500원; 모밀단품: 8,800원; 찹스테키동(우부채살덮밥): 17,000원; 볏짚부타동(목삼겹살덮밥): 13,000원"
오코노미야키골드(OKONOMIYAKI GOLD),서울특별시 마포구 방울내로 67,37.56011901,126.902783,이자카야,"금일 특선: 변동; 오코노미야키: 18,000원; 야끼소바: 17,000원; 야키멘타이코(구운 명란): 8,000원; 타코와사비: 5,000원"
오타루,서울특별시 마포구 만리재옛길 32,37.54687095,126.9562101,이자카야,단품요리: 모듬숙성회및각종구이
오티디 서울(OTD SEOUL),서울특별시 마포구 토정로3안길 25,37.54613136,126.9155158,바(BAR),"Signature Cocktails: 제철 식자재로 만든 칵테일; Seasonal Dish: 칵테일과 함께 곁들일 제철 주안상 (매월 메뉴 변동); Whisky glass: 200종의 위스키와 브랜디 , 럼 등등 잔술; Classic Cocktails: 변동"
오페라빈 합정점,서울특별시 마포구 독막로2길 22,37.54763012,126.9144409,"카페,디저트","카페 칸넬라: 에스프레소+설탕+우유+시나몬파우더+크림; 에스프레소: 에스프레소+설탕; 에스프레소 마끼아또: 에스프레소+설탕+우유+거품; 스트라파짜토: 에스프레소+설탕+코코아파우더; 콘 파냐: 에스프레소+설탕+크림; 카페 쇼콜라: 에스프레소+설탕+우유+코코아파우더+크림; 카페 티 베르데: 에스프레소+녹차가루+우유+녹차파우더+크림; 아메리카노: size up + 1,500; 카페라떼: 3,300원; 바닐라라떼: 3,800원; 아이스티: size up + 1,500; 카모마일: 4,000원; 홈메이드 레몬티: 4,500원; 홈메이드 자몽티: 4,500원; 레몬에이드: 4,500원"
오프더월(Off the Wall),서울특별시 마포구 독막로9길 14,37.54895969,126.9199104,바(BAR),"Food: 변동; Beer: 8,000~10,000원; Wine: 변동; Whisky: 변동; Hardliquor: 변동; Cocktail: 변동"
오한수 우육면가,서울특별시 마포구 성암로 330,37.58472618,126.885895,중식당,"홍콩우육탕면: 9,800원; 청경채 도가니탕면: 12,000원; 군만두4P: 7,000원; 찐만두: 7,000원; 매운양곱창탕면: 14,000원; 홍콩완탕면: 12,000원; 사천제육덮밥: 12,000원; 완자홍백훠궈: 1인 19000"
오한수우육면가,서울특별시 마포구 마포대로 109,37.54512082,126.9508818,중식당,"홍콩우육탕면: 9,800원; 청경채 도가니탕면: 12,000원; 군만두4P: 7,000원; 찐만두: 7,000원; 매운양곱창탕면: 14,000원; 홍콩완탕면: 12,000원; 사천제육덮밥: 12,000원; 완자홍백훠궈: 1인 19000"
오해피홀리데이(OH HAPPY HOLIDAY),서울특별시 마포구 숭문길 213,37.55591185,126.9464413,"카페,디저트","쌀가루 디저트: 100% 쌀가루 그리고 글루텐프리로 제철 과일을 사용한 디저트 (답례품 가능); 주문제작케이크: 100% 쌀가루와 고급스러운 식감을 자랑하는 버터크림으로 담백하고 고급스럽게,"
오헨,서울특별시 마포구 토정로27길 23,37.54349842,126.939713,베이커리,"소금빵: 2,500원; 뺑오시나몬: 4,000원; 뺑오올리브: 4,000원; 버터프래첼: 3,500원; 무화과빠베: 4,000원; 크로와상: 3,600원; 초코 크로와상: 4,200원; 뺑오쇼콜라: 4,000원; 아메리카노: 4,000원"
옥돌구이식당,서울특별시 마포구 신촌로14길 32,37.55475644,126.9331478,한식,"소불고기백반: 15,000원; 옥돌한정식: 12,000원; 생대구탕: 13,000원; 낙지볶음: 15,000원; 조기매운탕: 9,000원; 동태찌개: 8,000원; 부대찌개: 8,000원; 김치찌개: 8,000원; 오징어볶음: 9,000원; 제육볶음: 8,000원"
옥동식,서울특별시 마포구 양화로7길 44-10,37.55264959,126.9145154,국밥,"김치만두: 옥동식의 김치로 만든 매콤한 맛의 김치만두; 돼지곰탕 (보통): 버크셔k 앞다리, 뒷다리를 넣어 끓인 맑은 육수의 곰탕.; 돼지곰탕 (특): 16,000원; 곰탕포장: 19,000원; 잔술: 3,000원; 가펠생맥주 200cc: 6,000원; 가펠생맥주 300cc: 8,000원; 콤부차: 6,000원"
옥소반 상암점,서울특별시 마포구 매봉산로 80,37.57852904,126.8942826,샤브샤브,런치-샤브샤브A세트(미국산전각): 소고기(80g) +야채무한리필+후식; 런치-스키야키A세트(미국산전각): 소고기(80g) +야채무한리필+후식; 디너-샤브샤브A세트(미국산전각): 소고기(120g) +야채무한리필+후식; 디너-스키야키A세트(미국산전각): 소고기(120g) +야채무한리필+후식; 런치-샤브샤브B세트(미국산부채살): 소고기(80g) +야채무한리필+후식; 런치-스키야키B세트(미국산부채살): 소고기(80g) +야채무한리필+후식; 런치-샤브샤브C세트(한우설깃): 소고기(80g) +야채무한리필+후식; 런치-스키야키C세트(한우설깃): 소고기(80g) +야채무한리필+후식; 디너-샤브샤브B세트(미국산부채살): 소고기(120g) +야채무한리필+후식; 디너-스키야키B세트(미국산부채살): 소고기(120g) +야채무한리필+후식; 디너-샤브샤브C세트(한우설깃): 소고기(120g) +야채무한리필+후식; 디너-스키야키C세트(한우설깃): 소고기(120g) +야채무한리필+후식
옥자,서울특별시 마포구 성미산로29길 40-15,37.56549928,126.9224904,베트남음식,"참깨비빔국수: <<강력추천>>단짠단짠에 고소함을 더한 감칠맛으로 신선한 야채와 양지가 올라간 특선메뉴; 차돌양지쌀국수: 담백한 양지와 부드러운 차돌을 함께 해장에 제격인 고기국물의 보양식쌀국수; 모듬쌀국수: 담백한 양지고기와 부드러운 차돌,쫀득한 힘줄이 들어간 보양식 모듬쌀국수; 미니수육: 사이드메뉴 부드러운 사태고기와 쫀득한 힘줄로 구성된 한정메뉴. 옥자만의 간장소스를 푹 찍어 드시면 감칠맛까지 가득합니다.; 홍쌀국수: 청양의 얼큰함으로 맛을낸 옥자만의 비법소스로 만든 한국식 매운쌀국수; 차돌쌀국수: 고기한채를 삶아 차돌부위를 나눈후 얆게 재단하여 고명으로 올린 쌀국수 일반 냉동차돌이 아닌 주인장이 직접삶아 더욱 고소하고 부드럽습니다.; 사태비빔국수: 매콤한 수제비빔장에 신선한 야채와 사태고기 고명이 올라간 한국식 비빔쌀국수(매움주의); 모듬튀김: 멘보샤2pcs, 게살튀김2pcs, 해물짜조2pcs; 진도홍주잔술: 쌀과 지초로 만든 증류주. 진도에서만 전승,제조되고 있는 붉은색을 띄는 전통주.40도 .; 진도홍주하이볼: 진도홍주를 베이스로 한 하이볼 청량한 맛과 색,향이 일품 지초향 가득한 하이볼 후식주로 추천합니다."
오스테리아 샘킴,서울특별시 마포구 양화로3길 55,37.55130985,126.9109019,양식,"흰살생선과 안초비 오일 파스타: 23,000원; 소꼬리 라구 딸리아텔레: 23,000원; 문어와 마늘종 스파게티니: 25,000원; 프로슈토와 루꼴라 샐러드: 17,000원; 멜란자네: 18,000원; 구운문어와 라디치오: 20,000원; 관자구이와 라디치오: 23,000원; 생 트러플을 올린 버섯 샐러드: 25,000원; 해산물 스튜: 27,000원; 로브스터와 비스큐 링귀니: 35,000원; 보타그라를 곁들인 봉골레: 25,000원; 양갈비 스테이크: 40,000원"
오스테리아오라,서울특별시 마포구 잔다리로 105,37.55637856,126.9143708,이탈리아음식,"프로슈토 피자(부라타치즈별도): 프로슈토, 루꼴라, 레지아노 치즈 (부라타치즈 -11000/바질페스토-2000); 단호박크림뇨끼: 단호박크림, 수제감자뇨끼, 프로슈토칩,파스타치오 (견과류알러지 있으시면 말씀해주세요); (시즌한정메뉴)한우육회냉파스타: 여름스페셜메뉴 (한정메뉴입니다 , 선주문 추천드립니다); 한우채끝등심: 58,000원; 화이트라구 (후레쉬트러플추가3000): 살치살라구소스 제철야채, 다진 모둠버섯, 트러플 오일, (후레쉬트러플은 별도); 까르보나라: 소금집베이컨, 크림베이스에 노른자를 더한 꾸덕한 크림파스타; 모시조개새우 오일파스타: 흑모시와 어란을 이용한 오일파스타 (솔티한편입니다); 아마트리치아나: 소금집베이컨, 양송이를 볶아 녹진한 토마토베이스로 부라타치즈와 잘 섞어 먹는 파스타; 쵸리조엔초비 오일파스타: 쵸리조, 그린올리브, 페코리노, 엔쵸비, 페페론치노 (먹물 스파게티니); 하와이안 피자: 21,000원; 고르곤졸라: 고르곤졸라 소스, 꿀, 피스타치오; 부라타샐러드: 부라타치즈, 발사민글레이즈,비네그렛.바질페스토,베이컨칩, 당근라페; 오늘의디저트: 오늘의 디저트(상황에 따라 메뉴변경 또는 솔드 될 수 있습니다}; (종료)해산물라구: 돌문어,새우,베이컨(소금집), 우니페스토를 넣어. 맛을 낸 파스타; (종료)문어먹물리조또: 문어, 먹물, 아스파라거스, 그라나파다노, 쌀(신동진),딜오일"
오시리야,서울특별시 마포구 와우산로32길 41,37.55485883,126.9325126,"일식튀김,꼬치","참숯불 모듬꼬치구이: 20년 전통의 일본식 정통 꼬치구이 전문점; 삼치 선어회: 여수산 대삼치,여수산 갓김치,선어회의 진수를 느껴보세요.; 닭날개 2개: 소금구이의 담백한 맛을 느껴 보세요; 닭껍질: 20년째 부동의 판매 1위 품목; 조선하이볼: 8,000원; 얼큰 김치 오뎅탕: 오시리야에서만 드실수 있는 칼칼하구 얼큰하구 시원한 국물!!!; 야끼소바: 18,000원; 장어덮밥: 12,000원; 꼬치덮밥: 9,000원"
오시오,서울특별시 마포구 월드컵북로50길 5,37.57698955,126.8934563,한식,"서대회무침: 50,000원; 간장게장: 35,000원; 병어조림 (2인분): 30,000원; 갈치구이: 30,000원; 묵은지고등어 2인분: 26,000원; 서대찜 2인분: 26,000원; 민어찜 2인분: 30,000원; 갈치찌개: 30,000원; 닭도리탕/백숙 (대): 45,000원; 낙지볶음 (대): 50,000원; 동태찌개 (2인분): 25,000원; 조기찌개 (2인분): 26,000원; 닭도리탕/백숙 중: 35,000원; 낙지볶음 중: 40,000원; 조기구이 2인분: 26,000원"
오엘커피,서울특별시 마포구 잔다리로 30-32,37.55195302,126.9201162,"카페,디저트","아메리카노: 4,500원"
오우 (OU),서울특별시 마포구 월드컵북로26길 26,37.56762489,126.9115816,한정식-일반,"오우 반상 : 쇠고기 와규 육전: 호주산 와규소고기를 얇게 저며 찹쌀가루와 유정란 계란물을 입혀 익혀낸 고소, 부드러운 육전; 오우 반상 : 군산 참박대구이: 군산 참박대구이 + 뚝배기 기장백미솥밥 + 그 달의 국 + 3찬 + 씨앗젓 + 유자무절임; 오우 반상 : 육새우 깻잎전: 얇게 저민 와규 소고기와 다진 새우살 그리고 향긋한 깻잎의 환상궁합; 오우 반상 : 매콤 돼지등갈비 김치찜: 매콤돼지등갈비 김치찜 + 기장 백미솥밥 + 3찬 + 곱창돌김 + 국; 찌개 반상 : 맑은 명란순두부찌개: 맑은 명란 순두부찌개 & 오징어초무침+ 기장 백미솥밥 + 3찬; 2인 세트 : 제주더덕구이와 와규육전: 매콤더덕구이&와규 육전 + 뚝배기 솥밥2 + 해당 월 찌개2 + 3찬, 씨앗젓, 곱창돌김; 단품 : 오징어파전: 물 없이 자연방사 유정란과 전분으로 구워낸 도톰, 폭신한 오징어파전; 단품 : 명란 계란말이(대): 상하농원의 자연방사 유정란과 저염 백명란을 사용합니다.; 오우 반상 : 송이 솥밥: 송이 솥밥+ 쇠고기 와규 육전&초계무침&곱창돌김과 양념장 + 3찬 + 장아찌, 씨앗젓 +국; 오우 반상 : 국내산 순살 찜닭: 순살 찜닭 + 3찬 + 유자무절임 + 기장백미솥밥 + 국; 2인 세트 : 한돈 목살구이: 한돈 목살구이 +해당 월 찌개2+솥밥2+ 인당 3찬, 장아찌, 씨앗젓과 곱창돌김; 2인 세트 : 소갈비(미국산 본갈비): 양념 소갈비(280g)+ 해당 월 찌개2 + 솥밥2 + 인당 3찬, 씨앗젓,곱창돌김; 단품 : 베이컨 치즈 감자채전: 감자채와 구운 베이컨 그리고 치즈토핑이 올려진 바삭한 감자채전은 트러플 마요에 찍어드세요.; 단품 : 갑오징어 초무침(소): 쫄깃한 갑오징어를 특제 소스에 버무려 입맛 돋구는 새콤함."
오원집,서울특별시 마포구 마포대로14길 22,37.54817418,126.9568596,"육류,고기요리","연탄초벌 생삼겹살: 11,000원; 연탄초벌 생소갈비살: 12,000원; 연탄초벌 파불고기: 10,000원; 양푼이 생고기김치찌개: 12,000원"
오이지,서울특별시 마포구 연희로1길 15,37.5596623,126.925653,한식,"차돌 들기름 국수: 건강한 표고면에 들깨가 톡톡 씹혀 재미있고 맛있는 국수; 명란 치즈 순두부: 순두부, 명란, 치즈가 잘 어우러진 얼큰한 이색 순두부찌개 (공기밥 포함); 차돌 온국수: 진하게 우려낸 육수국물에 고소한 차돌로 풍미를 더하여 따뜻한 국수; 흑임자 크림 수제비: 흑임자의 고소한 맛을 더한 오이지만의 특별 크리미 수제비; 꼬막 비빔밥: 매콤 고소한 오이지 특제 소스로 버무린 꼬막 비빔밥; 오이지 소왕갈비: 특제소스의 갈비와 구운야채를 함께 드실수있는 고기메뉴; 차돌 숙주 오꼬전: 매콤한 차돌박이 숙주 볶음이 듬뿍 올려진 오이지 스타일의 오꼬노미야끼; 치즈 옥수수전: 톡톡 터지는 옥수수와 고소한 치즈가 들어간 옥수수전; 전복 매콤비빔국수: 버터에 구운 전복과 특제 매콤소스를 곁들인 비빔국수; 차슈 김치 덮밥: 잘 숙성된 김치와 차슈가 만나 깔끔 담백한 맛의 덮밥; 스키야키 덮밥: 부드럽고 달큰한 소스와 매콤한 고추 절임을 올린 오이지만의 스키야키식 덮밥; 매운 닭갈비 덮밥: 불향이 살아있는 오이지만의 매콤한 닭갈비 덮밥; 차돌 떡볶이: 차돌과 오뎅튀김을 곁들인 오이지 떡볶이; 치즈 김치볼: 김치볶음밥에 트러플 소스를 곁들여 만든 아란치니; 오이지 냉모밀: 얼음동동 시원한 육수에 고소한 보리면과 새우가 들어간 여름 특선메뉴"
오자네왔는가,서울특별시 마포구 마포대로12길 37,37.54715566,126.9547802,"전통,민속주점","닭볶음탕: 35,000원; 통북어찜, 오징어찜: 35,000원; 홍어무침: 32,000원; 각종 탕류: 20,000원; 식사류: 8,000원"
오자와,서울특별시 마포구 양화로10길 15,37.55102705,126.9173908,돈가스,"돈가츠오므라이스: 12,900원; 수제돈가츠: 11,000원; 눈꽃치즈돈까스: 12,900원; 가츠동(돈까스덮밥): 8,500원; 옛날돈가츠: 11,500원; 돈가츠쫄면: 12,900원; 특등심돈가츠: 14,000원; 돈가츠김치나베(일식김치찌개): 11,500원"
오장동흥남집마포점,서울특별시 마포구 마포대로 143,37.54744716,126.9530943,냉면,"세트메뉴A: 18,000원; 세트메뉴B: 19,000원; 회냉면: 14,000원; 물냉면: 14,000원; 회무침: 15,000원"
오제키,서울특별시 마포구 와우산로29바길 12,37.55591714,126.926001,이자카야,"참치사시미 소: 38,000원"
오지개,서울특별시 마포구 포은로6길 25,37.55599819,126.9063406,종합분식,"떡볶이: 3,500원; 치즈김밥: 3,500원; 순대: 3,500원; 꼬마김밥(7개): 4,000원; 고기만두: 4,000원; 땡초김밥: 3,500원; 제육김밥: 4,000원; 쇠고기김밥: 4,000원"
오징어이야기홍대수산,서울특별시 마포구 홍익로5길 43,37.55326153,126.920335,낙지요리,"광어 中: 28,000원; 광어+우럭: 30,000원; 농어: 45,000원; 도다리: 40,000원"
오카에리,서울특별시 마포구 연희로1길 55,37.56132565,126.9262517,일식당,"계절 모듬 사시미: 38,000원; 산쇼쿠 슈토아에: 28,000원; 가지 아나고 하사미아게: 25,000원; 나베(새우/차돌박이): 2인용 35,000원~38,000원 3/4인용 45,000원~48,000원; 니혼슈(사케): 변동; 일본 쇼추: 변동"
오봉집상암점,서울특별시 마포구 성암로13길 25,37.5769773,126.896966,한식,"오봉스페셜: 직화낙지+보쌈+쟁반막국수; 매생이연포보쌈: 연포탕+보쌈+칼국수; 매생이연포탕: 연포탕+칼국수; 얼큰낙지전골: 30,000원; 오봉조개탕: 18,000원; 오봉보쌈: 오봉보쌈(소)33,000원/오봉보쌈(중)38,000원/오봉보쌈(대)44,000원; 직화낙지볶음: 점심특선시 12,000원; 보쌈정식: 점심특선시 10,000원; 직화제낙볶음: 점심특선시 11,000원; 직화제육볶음: 점심특선시 10,000원; 해물칼국수: 9,000원; 쟁반막국수: 9,000원; 갑오징어구이: 25,000원; 쫀득편육: 14,000원; 매콤낙지만두: 5,000원"
오비야,서울특별시 마포구 홍익로2길 27-20,37.55546087,126.9243778,일식당,"텐동+냉소바정식: 16,000원; 스키야끼벤또: 스키야끼덮밥+숙성회+튀김+메밀+메밀김밥+과일후식: 평일 점심메뉴/ 전화예약시 15000!!; 관서식스키야끼2인세트: 관서식스키야끼+토마토소바+메밀김밥1/2 오비야의 인기메뉴를 한번에 맛보실수 있어요!!; 토마토소바: 12,000원; 새우튀김냉소바: 새우텐푸라+판메밀; 셰프에게 직접예약10%할인: 3가지메뉴만 할인적용(스키야끼소바코스.우동코스,관서식 2인세트)010-7999-1392; 모듬튀김: 18,000원; 치킨카라아게: 10,000원; 새우튀김2마리: 6,000원; 치쿠와튀김4개: 6,000원; 명란마요오니기리1개: 3,000원; 관서식 스키야끼(단품): 국물이 거의 없는 관서식 스키야끼나베; 스키야끼전골(대): 국물이 있는 스키야끼전골(3인정도로 드시기 좋은 양입니다); 스키야끼전골(소): 국물이 있는 스키야끼전골(2인으로 드시기 좋은양입니다); 얼그레이하이볼: 8,000원"
오사이초밥 홍대점,서울특별시 마포구 연희로1길 11,37.55964552,126.9257891,"초밥,롤","오마카세 초밥 런치: 오마카세 초밥 런치; 오마카세 초밥 디너: 29,000원"
오색오미,서울특별시 마포구 월드컵로26길 39,37.55948225,126.9099229,"도시락,컵밥",도시락: 직접 농사지은 신선한 제철 농산물을 사용하여 만드는 도시락
오센,서울특별시 마포구 월드컵로 235,37.56519693,126.8984865,이자카야,"오꼬노미야끼: 17,000원; 살치살과 구운야채: 25,000원; 전복새우 빠다야끼: 25,000원; 등갈비 튀김: 19,000원; 전복내장 파스타: 17,000원; 가지산도: 19,000원; 조개술찜: 19,000원; 명란구이: 16,000원; 모듬 오뎅탕: 20,000원; 새우삼겹말이와 구운야채: 19,000원; 유린기: 18,000원"
오소오소,서울특별시 마포구 월드컵북로48길 5,37.57660792,126.8940735,"육류,고기요리","콤보한판: 콤보한판750g 등심250g + 갈빗살250g + 토시살250g 가족모임 대표메뉴; 모듬반판 500g: 프라임냉장 소등심(250g) 또는 소갈비살(250g) 또는 토시살(250g) 중 선택2종; 수제갈비탕: 장시간 직접우려낸 육수에 수제갈비를 더한 한끼의 보약 수제 갈비탕(점심대표메뉴); 서울식 생불고기: 프라임등급의 소등심을 앏게썰어 야채와 함께 끓어먹는 서울식 생불고기; 왕모듬 1kg: 프라임 소등심 + 갈빗살+ 프라임 토시살 + 특양 의 왕모듬으로 총1kg의 왕 대표회식메뉴; Big 콤보 1.1kg: 프리미엄 소등심, 소갈비살, 토시살 과 LA갈비 의 콤비네이션을 참숯백탄과 함께 즐깁니다.; 모듬한판: 프리미엄 소등심(400g) 과 소갈비살(400g) 한판 800g, 오소오소의 대표 회식메뉴; 특양구이 500g: 소의 첫번째 위로서, 양깃머리라 부르며 특유의 쫄깃함과 담백한 맛으로 영양만점-대표구이메뉴; 양념왕갈비2대: 특제소스로 재워 부드럽고 맛있는 오소오소 양념 왕갈비; 특양모듬 500g: 소의 첫번째 위를 양깃머리 즉 특양이라한다. 특양(250g)과 소갈비살(250g) 이 반반; 김치말이국수: 신원한 동치미 육수와 도토리묵의 조화(오소오소 대표 사이드메뉴); 태양초양푼떡볶이: 태양초100%를 사용해 오소오소가 개발한 맛있는 수제 떡볶이는 소주안주에 좋아요; 차돌된장국수: 3가지된장을 배합한 오소오소만의 비법과 멸치육수로 깊이를 더해 탄생한 차돌된장찌개국수,; 물/비빔 냉면: 맛있는 동치미육수 베이스의 물냉면,과 비빔냉면.; 그릴소세지: 소세지2개와 가래떡1개"
오스테리아 리오(Osteria Leo),서울특별시 마포구 어울마당로5길 50,37.55003356,126.9181181,이탈리아음식,"Degustation A (코스 A): 한입요리, 전체, 파스타(선택), 메인(선택), 디저트, 커피 혹은 차; Degustation B (코스 B): 한입요리, 전체, 두가지 파스타, 클렌저, 메인(선택), 디저트, 커피 혹은 차; Arancini 아란치니: 라구, 보리쌀, 파르마산, 트러플오일; Abalone 완도산 전복구이: 25,000원; Tuna tartar(참치 타르타르): 참다랑어 등살, 아보카도, 아부르가케비어; Vongole 봉골래: 바지락, 홍합, 페페로치노, 엑스트라버진; Ragu 소정강이 라구: 48시간 우린 소정강이와 우민찌 토마토 그라나빠다노; Carbonara 까르보나라: 26,000원; Gnocchi 뇨끼: 세이지버터 앙송이 피스타치오 해바리기씨 고트치즈 그라나빠다노; Seafood 해산물엔초비: 엔초비 제철생선 새우 홍합 바지락 페페로치노 시칠리아식 크럼블; Basil pesto 바질페스토: 소고기라구, 카포나타 파마산 치즈 바질페스토; Taliolini 새우 딸리올리니: 다진 흰다리새우, 수제리코타, 루꼴라, 새우머리로우린 비스크 소스; Margherita 마르게리따: 토마토소스 생 모짜렐라 바질; Caponatta 카포나타: 구운 파프리카가지 토마토 그라나빠다노 모짜렐라 페타치즈; Spicy pork ragu 돼지라구: 매콤한 돼지고기 구운 홍고추 파프리카 할라피뇨 모짜렐라"
윤해빛찬,서울특별시 마포구 동교로12안길 23,37.55414643,126.9136562,이자카야,"뽈살: 2p 제공; 관자살: 2p 제공; 뒷덜미살: 2p 제공; 참마: 6,000원; 하이볼: 가쿠빈; 生산토리프리미엄몰츠: 9,000원; 生레몬사와: 7,000원; 트러플창자크림치즈: 9,000원"
은성순대국,서울특별시 마포구 굴레방로9길 44,37.5567736,126.9531747,한식,"순대국: 9,000원; 술국: 15,000원; 머리고기: 20,000원; 공기밥: 1,000원; 소주: 5,000원; 맥주: 5,000원; 청하: 6,000원; 막걸리: 4,000원"
은코시(NKOSI),서울특별시 마포구 동교로12길 36,37.55272231,126.9126243,"카페,디저트","위스키: 변동; 하이볼: 진 (비피터) 블랜디드 (페이머스 글라우스) 아이리쉬(제임슨 블랙배럴) 버번(버팔로); 브루잉커피: 핸드드립으로 내린 커피; 아메리카노: 적절한 산미와 적절한 바디, 밸런스 좋은 아메리카노; 라떼: 고소하고 커피맛이 진하지 않은 라떼; 아인슈밤: 밤크림이 올라간 아인슈페너; 아포가또: 하겐다즈 아이스크림 위에 피스타치오와 에스프레소; 라벤더레몬에이드: 레몬의 신맛과 라벤더의 부드러운 단맛이 나는 레몬에이드"
은하루,서울특별시 마포구 월드컵로3길 56,37.55002777,126.9096417,중식당,"유니짜장: 8,000원; 짬뽕: 10,000원; 마파두부덮밥: 10,000원; 돼지고기 가지 덮밥: 9,000원; 탕수육: 탕수육 L 32000; 칠리새우: 칠리새우 L 35000; 깐풍육: 23,000원; 마파두부 M: 마파두부 L 28000; 양장피 M: 양장피 L 35000; 유산슬: 32,000원; 팔보채: 38,000원; 산라탕: 28,000원; 짬뽕탕: 20,000원; 산동식 닭고기 냉채: 15,000원"
은하반점,서울특별시 마포구 마포대로 63-8,37.54225534,126.9478214,중식당,"유니자장: 4,500원; 간자장: 5,500원; 쟁반자장: 6,500원; 고기해물짬뽕: 5,500원; 삼선자장: 6,500원"
은행골,서울특별시 마포구 어울마당로 145,37.55659763,126.9258667,"초밥,롤","특진초밥 12pcs: 은행골 대표 프리미엄 초밥 5가지 (도로3, 연어3, 장어2, 광어2, 장새우2); 특선초밥 12pcs: 은행골의 가장 인기있는 메뉴! (연어3, 광어3, 장어2, 장새우2, 문어2); 특미초밥 12pcs: 은행골 갓성비 초밥 (연어3, 찐새우3, 아까미2, 문어2, 계란2); 도로세트 초밥 12pcs: 참다랑어 도로가 올려진 최고 프리미엄 초밥 (오도로4, 쥬도로4, 새도로4); 도로활어 반반 초밥 12pcs: 참다랑어 도로와 숙성 광어의 환상적인 조합 (도로6, 연어6); 도로연어 반반 초밥 12pcs: 참다랑어 도로와 숙성 연어의 부드러운 조합 (도로6, 연어6); 활어연어 반반 초밥 12pcs: 프리미엄 숙성 연어와 광어의 조화 (연어6, 광어6); 활어초밥 12pcs: 프리미엄 숙성 광어 12pcs; 연어초밥 12pcs: 은행골 연어 마니아들의 최애 메뉴 (숙성연어 12pcs); 가마도로 (참치회): 참다랑어의 목살 부분; 배꼽살 (참치회): 참다랑어 대뱃살 (쫄깃한 식감); 오도로 (참치회): 참다랑어 대뱃살 부분; 쥬도로 (참치회): 참다랑어 중뱃살; 광어연어 (회): 숙성광어와 연어를 회로 즐기실수 있는 갓성비 메뉴; 풀코스 (초밥+회) 3-4인: 은행골의 대표 프리미엄 초밥과 회를 모두 맛보실수 있는 세트 입니다."
을밀대,서울특별시 마포구 숭문길 24,37.547488,126.9455299,냉면,"물냉면: 15,000원; 회냉면: 18,000원; 녹두전: 12,000원; 수육 大: 70,000원; 비빔 냉면: 15,000원; 수육 小: 35,000원; 홍어: 60,000원; 양지탕밥: 12,000원"
음 세이로무시,서울특별시 마포구 매봉산로2길 15,37.57852649,126.8949732,일식당,거세한우 ++등심.: 거세 한우 투뿔등심과 차돌를 열 여덟가지 야채와 함께 편백나무에 쪄서먹는 웰빙요리; 닭날개가라아게: 매콤한 닭날개에 튀김옷을 얇게 입힌 바삭하고 고소한 가라아게; 흑되지등심: 단백하고 쫄깃한 껍데기가 있는 지례흑돼자; 야끼오니기리: 화로에 노릇하게 구운 주먹밥에 특제 소스를 발라 갓짱아찌를 올려먹는 특별한 맛; 거세한우+차돌박이: 고소한 거세한우 1+ 차돌박이; 평일런치스페셜 지리산 흑돼지 샤브샤브: 신선한 야채와 지리산 흑돼지등심의 쫄깃하고 단백한 식감을 맛보실수 있는 메뉴; 스지오뎅나베: 돼지뼈와 닭으로 만든 시원한 육수와 오뎅 도가니의 환상적인 만남 .; 국내산 가리비찜: 국내산 대왕가리비찜. 사전 예야시 가능; 고구마구이: 음세이로무시의 시그니쳐메뉴 화로에 잘 구운 고구마와 무가염버터의 환상적인 콜라보; 타코가라아게: 짭짭한 문어 다리튀킴.타르타르소스와 난방소스; 문어폰즈: 국내산 동해한 피문어에 상큼한 폰즈소스와 레몬 양파 젤리폰즈를 곁들여 먹는 전채요리; 닭목살: 쫄깃한 닭목살을 화로에 초발구이후 비법 타레 소스를 한번 더 발라구워낸 요리; 마구로 타다끼: 참다랑어 등살을 볏짚에 훈연하여 폰즈소스.히말라야 암염.대파.와사비를 겹들여 먹는 사시미; 가오리포: 배부를때 간단하게 맥주와 먹는 안주로 추천; 아스파라거스 구이: 아삭한 맛으로 상큼한 레몬즙과 히말리아 암연을 콕 찍어 먹는 맛
응급실국물떡볶이 공덕점,서울특별시 마포구 마포대로24길 56,37.55156146,126.9619053,분식,"응급실 국물떡볶이: 14,000원; 응급실 국물오뎅: 14,000원; 응급실 닭볶음탕: 22,000원"
육쌈냉면,서울특별시 마포구 와우산로23길 35,37.55439845,126.9234763,냉면,"물냉면+숯불고기: 10,000원; 비빔냉면+숯불고기: 10,000원; 낙지비빔밥+숯불고기: 10,000원; 알밥+숯불고기: 10,000원; 고기만두: 4,000원; 낙지비빔밥+숯불고기: 10,000원; 낙지돌솥밥+숯불고기: 10,000원; 굴순두부+숯불고기: 10,000원; 뚝배기 불고기: 10,000원; 숯불고기덮밥: 10,000원; 소고기된장+숯불고기: 10,000원; 칼국수+숯불고기: 10,000원; 떡만두국+숯불고기: 10,000원; 육개장+숯불고기: 10,000원"
육장,서울특별시 마포구 망원로2길 17,37.55564097,126.9008566,한식,"육개장: 3대를 이어오는 육개장 방식을 신선한 채소와 진한육수 와 풍서한 고기를 주문즉시 끓여내어 깔끔하고 시원한 맛을 느낄있는 한끼 입니다.; 육갈탕: 3대를 이어오는 육개장 방식을 소고기 대신 소갈비를 넣어 진하고 풍성한 고기맛을 느낄수 있는 한끼입니다.; 육라면: 11,000원; 음료: 2,000원; 육갈라면: 16,000원; 달걀말이육개장: 15,000원; 육개장밀키트: 18,000원"
육장갈비상암점,서울특별시 마포구 월드컵북로54길 17,37.5813225,126.8885465,"육류,고기요리","육장갈비: 23,000원; 소한마리: 95,000원; 한우차돌박이: 28,000원; 차돌된장찌개: 9,000원"
육전국밥 상암드림타워점,서울특별시 마포구 월드컵북로56길 19,37.58233892,126.8883616,국밥,"육전소고기국밥: 10,000원; 육전막국수(물,비빔): 국산 메밀로 만든 막국수에 시원한 동치미 육수와 과일을 이용한 특제 양념장으로 맛을 내고 즉석에서 만든 소고기 육전을 고명으로 얹은 명품 육전 물 막국수; 육전막국수 정식(물/비빔): 1인육전 + 막국수(물/비빔); 미소곰탕 정식: 1인육전 + 미소곰탕; 소고기국밥 정식: 1인육전 + 소고기국밥; 소고기국밥: 9,000원; 함박곰탕: 12,000원; 미소곰탕: 10,000원; 소고기육전(소): 14,000원; 소고기육전 대: 24,000원; 수제소고기완자: 15,000원; 호박전: 12,000원; 깻잎전: 15,000원; 모둠전: 23,000원; 육전완자반반: 20,000원"
육전국밥 합정점,서울특별시 마포구 양화로 36,37.54851205,126.9133418,국밥,육전소고기국밥: 국내 최초 개발 !! 육전소고기국밥; 육전비빔막국수: 국산 메밀과 천연 과일소스의 깊~고 풍부한 맛 !!; 육전물막국수: 국산 메밀과 천연 과일소스의 시원~한 맛 !!; 함박곰탕: 함박웃음이 저절로 나오는~ 명품 곰탕; 소고기육전(소): 한~장 한~장 즉석에서 부치는 놓칠 수 없는 별미~; 모둠전: 막걸리가 생각나는 즉석 6종 모둠 전~; 소불고기전골(2인): 최상급 소고기와 자체개발 특제 양념 육수; 소고기국밥: 하루에도 몇 번 씩 매장에서 직접 끓여 신선하고 맛있는~; 미소곰탕: 미소가 저절로 나오는~ 실속 곰탕; 소고기국밥정식: 소고기국밥 + 1인 육전(100g); 막국수정식: 막국수(물/비빔) + 1인 육전(100g); 미소곰탕정식: 미소곰탕 + 1인 육전(100g); 소고기완자: 신선한 야채와 소고기로 즉석에서 부치는~; 육전완자반반: 소고기 육전과 완자를 동시에~; 깻잎전: 깻잎 속에 소고기를 넣어 깔끔하고 상큼한 맛~
육파장,서울특별시 마포구 월드컵북로 402,37.58010775,126.8889823,한식,"한우파육개장: 8,500원; 한우보양식미역국: 7,500원; 제육비빔밥+미역국: 7,500원; 제육비빔밥+육개장: 7,500원; 북어국: 7,500원; 쭈구미볶음+북어국: 8,500원"
육향,서울특별시 마포구 잔다리로 97,37.55585076,126.9147859,소고기구이,"한판 (800g): 육향 대표 인기메뉴로 한우갈비짝에 붙어있는 갈비살, 살치살, 토시살로 구성되어 있습니다.; 반판 (400g): 육향 대표 인기메뉴로 한우갈비짝에 붙어있는 갈비살, 살치살, 토시살로 구성되어 있습니다.; 한우육회 (한정수량): 한우 암소를 직접 공수해서 최대한 고기육향을 살려 고기본연의맛을 해치지 않게 양념했습니다.; 한우육사시미(한정수량): 한우 암소를 직접 공수해서 소 한마리당 2kg이내의 소량부위만 취급하는 육사시미입니다.; 경주갈비살 (100g) (소금/양념): 부드럽고 풍미가 넘치며 씹는맛이 좋아 쫀득한 부위입니다.; 살치살 (100g) (소금/양념): 마블링이 가장좋은 살코기로 육즙이 풍부하여 입에서 살살 녹는듯한 식감을 느끼실수있습니다.; 토시살 (100g) (소금/양념): 안심살 옆에 붙어있어 안창살과 같이 부드러우며 쇠고기의 원초적인 맛으로 쫄깃한 식감입니다.; 육회비빔밥: 한우 암소를 직접공수해서 고기본연의 맛을 살린 육회에 제철에 나는 나물을 넣어만든 비빔밥; 한우 된장찌개: 한우 짜투리 고기와 제철봄나물 듬뿍 들어간 시골 된장으로 맛을 낸 전통재래식 된장찌개; 한우 된장술밥: 육향 시그니처 된장찌개 안에 밥이 듬뿍 들어있는 전통재래식 된장술밥; 물냉면 / 비빔냉면: 동치미와 사골육수로 맛을낸 물냉면 / 19가지 재료로 만든 비법양념으로 맛을낸 비빔냉면"
육회 by 유신,서울특별시 마포구 망원로11길 29,37.55896241,126.9063199,"육류,고기요리","육회 180g: 20,000원; 육회 280g: 30,000원; 연어사시미 200g: 20,000원; 연어사시미 300g: 30,000원; 육사시미: 30,000원; 육회초밥 8p: 12,000원; 연어초밥 8p: 12,000원; 육회비빔밥: 15,000원; 연어장 덮밥: 15,000원; 연어덮밥: 15,000원; 육회김밥 (5pc): 15,000원; 참치연어김밥( 5pc ): 15,000원; 한우떡갈비 250g: 15,000원; 한우탄탄면: 12,000원; 알탕: 20,000원"
육회로,서울특별시 마포구 독막로9길 8,37.54868786,126.9197445,"육류,고기요리","육회 육사시미: 육회 육사시미 전문점!!!!!!!!!!!!!!; 육회한접시+육사시미200g: 50,000원; 육회한접시+한우 육사시미 초회: 42,000원; 육회한접시+한우물회: 42,000원; 육회한접시+한우육전: 42,000원; 육회한접시+매콤한우 숙주볶음: 39,000원; 육회한접시+한우튀김: 39,000원; 육회한접시+한우짬뽕: 39,000원; 육회한접시+떡갈비: 36,000원; 육회한접시+육회비빔면: 42,000원; 육사시미한접시+육회반접시: 40,000원; 육사시미한접시+한우육사시미초회: 46,000원; 육사시미한접시+한우물회: 46,000원; 한우육사시미한접시+한우육전: 46,000원; 육사시미한접시+매콤한우숙주볶음: 44,000원"
육회어때,서울특별시 마포구 마포대로12길 24,37.54790323,126.9547472,"육류,고기요리",뭉티기: 당일 도축한 소를 특송받아 작업하는 한우 생고기; 한우육회+한우육사시미+연어: 1++ 최상급 한우육회와 1++ 최상급 숙성사시미와 1등급 슈페리어 연어 SET; 한우육회+한우육사시미: 1++ 최상급 한우육회와 1++ 최상급 숙성사시미 SET; 한우육회+연어사시미: 1++ 최상급 한우육회와 1등급 슈페리어 연어 SET; 한우육사시미+연어사시미: 1++ 최상급 숙성 사시미와 1등급 슈페리어 연어 SET; 한우육회탕탕이: 1++ 최상급 한우육회 위에 산낙지 탕탕이; 한우육회: 매일 직접 작업하는 신선한 1++ 최상급 '생' 한우육회; 연어사시미: 노르웨이산 1등급 슈페리어(Superior) 최상급 연어; 한우육사시미: 주문과 동시에 썰어나가는 1++ 최상급 숙성 한우 사시미; 한우접시수육(1++): 최상급 1++ 한우 사태로 조리한 야들야들한 수육; 낙지볶음소면: 직접 개발한 소스로 양념한 불맛나는 매콤한 낙지볶음소면; 골뱅이소면: 직접 개발한 소스로 양념한 새콤달콤 골뱅이소면; 육전: 주문과 동시에 부치는 고급 육전; 통새우 미나리전: 통새우가 올라간 향긋한 미나리전; 한우수육전골 (1++): 1++ 한우사태로 조리한 수육을 각종 야채와 함께 끓인 전골요리
육회한달.밤,서울특별시 마포구 독막로3길 27,37.5496271,126.9170262,한식,"한우 육회 200g: 신선한 1++ No.9 육회; 한우 세트(육회180g+사시미150g): 1++ No.9 육회+사시미; 한우 고추장 육회 220g: 1++ No.9 고추장육회; 한우 사시미 180g: 신선한 1++ No.9 육사시미; 한우 육회 초밥 10p: 12,000원; 한우 사시미 초밥 10p: 14,000원; 한우 육회 비빔밥: 직접 만든 고추장으로 맛 낸 비빔밥; 한우 라면: 직접 볶아 만든 다대기로 끓인 진한 맛; 한우 순두부찌개: 13,000원; 어묵탕: 13,000원; 치즈 계란말이: 모짜렐라+체다 두가지 치즈를 넣어 만듭니다; 옛날 소세지: 옛날 소세지에 계란을 입혀 부친 추억의 맛"
윤멘(YOONMEN),서울특별시 마포구 포은로 27,37.55019396,126.9081228,일본식라면,"모츠츠케멘200g: 13,000원; 모츠츠케멘300g: 14,000원"
윤씨밀방,서울특별시 마포구 와우산로15길 15,37.5496581,126.9223900265,"스테이크,립","윤씨함박스테이크정식: 11,000원; 터키풍함박스테이크와계란볶음밥: 13,000원; 텍스-멕스 볼케이노와 소보로 덮밥: 13,000원; 함박존슨탕: 12,000원; 머쉬룸투움바파스타: 11,000원"
유정,서울특별시 마포구 독막로 278,37.54526689,126.9440108,낙지요리,"낙지볶음(1인/공깃밥 별도): 무교동 낙지의 원조, '맛있게 매운 맛'의 낙지볶음.; 산낙지데침과 한우 업진수육: 쫀득하고 부드러운 식감이 일품인 ‘한우 업진수육’과 데친 ‘산낙지’를 강진 ‘토하젓’ 과 4대째 내려오는 명품 ‘고추지’와 함께 즐길 수 있는 유정낙지 본점만의 대표메뉴; 한우 낙지볶음(1인/공깃밥 별도): 한우와 낙지를 간장소스에 볶아 어린이도 즐길 수 있는 순한 낙지볶음.; 백합조개탕: 백합조개를 사용해 시원하고 담백한 맛으로 매콤한 낙지볶음과 환상의 궁합; 산낙지볶음(2인/공깃밥 별도): 산낙지의 부드럽고 쫄깃한 식감을 한껏 살려, 더욱 ‘맛있게 매운 맛’을 내는 산낙지 볶음; 산낙지 한우볶음과 전복(공깃밥 별도): 산낙지의 부드럽고 쫄깃한 식감과 한우의 고소한 맛. 그리고 영양만점 전복이 어우러진 메뉴; 연포탕: 깔끔하고 시원한 국물맛을 자랑하는, 산낙지 연포탕; 낙지 초무침: 직접 만든 초고추장으로 부드럽게 매우면서 새콤한 맛을 낸 낙지 초무침; 산낙지 탕탕이: 산낙지의 고소함과 쫄깃함을 그대로 느낄 수 있는 산낙지 탕탕이!; 낙지 전복찜: 콩나물, 낙지, 배추, 미나리, 전복, 관자 등을 차곡차곡 쌓아 올린 낙지 전복찜. 레몬 넣은 초간장에 찍어 드시면 담백한 재료 본연의 맛을 즐기실 수 있어요; 낙지튀김: 바삭하게 튀겨진 통통한 낙지다리에 소금과 후추를 곁들여낸 튀김요리; 낙지 한마리 파전: 낙지 한 마리가 통째로 들어간 멋진 비주얼만큼 맛있는 파전; 낙지 감자전: 손으로 직접 갈아만든 감자의 고소함과 토핑된 낙지의 쫄깃함을 한번에 느낄 수 있는 낙지 감자전; 점심 메뉴 2인 세트(공깃밥 별도): [매일 오후 3시까지] 낙지볶음 2인분+백합탕; [점심한정]감자탕(공깃밥 별도): 낙지를 갈아 넣어 더욱 고소한 국물 맛을 내는 옛날 유정낙지 감자탕, 원조의 맛"
유주얼 하우스(usual house),서울특별시 마포구 양화로7길 48,37.55273646,126.9141633,"카페,디저트","브런치 플레이트: 15,000원; 연어 오픈 샌드위치: 14,000원; 애플 브리 샌드위치: 11,000원; 머쉬룸 그릴 샌드위치: 11,000원; 유주얼 샌드위치: 9,000원; 시즈널 샐러드: 11,000원; 프렌치 토스트: 9,000원; 민트 파인 소르베: 7,000원; 애플 시나몬 카푸치노: 6,000원; 바질 토마토 에이드: 6,500원; 당근케이크: 6,000원; 바스크 치즈 케이크: 7,000원"
유진식당,서울특별시 마포구 월드컵북로48길 29-5,37.57730114,126.8949799979,냉면,"설렁탕: 7,000원; 돼지머리국밥: 7,000원; 물냉면: 11,000원; 비빔냉면: 11,000원; 회냉면: 15,000원; 녹두지짐: 10,000원; 홍어무침: 15,000원; 돼지수육: 10,000원; 돼지술국: 14,000원; 소수육: 15,000원; 소술국: 15,000원"
유진정육식당,서울특별시 마포구 독막로 11-5,37.54900117,126.9148173,정육식당,"소한마리(900g): 88,000원; 송아지한마리(450g): 55,000원; 돼지스페셜(900g): 62,000원; 돼지한마리(900g): 52,000원; 생삼겹살(200g): 15,000원; 생오겹살(200g): 15,000원"
유쾌한 뒷고기,서울특별시 마포구 어울마당로 145-2,37.55665621,126.9260243,한식,삼겹살: 100%국내산암돼지180g제공됩니다; 한우물육회: 시원한물회와육회를 같이 즐길수 있는 메뉴; 한우육회1++: 한우육회
유쾌한 양식,서울특별시 마포구 양화로 45,37.55150012,126.9139548,양식,"베이컨버섯 파스타: 12,000원; 목살스테이크: 매콤한 소스에 목살과 갈릭드래싱콘샐러드.양념감자 .구운 새우 . 그리고 칠리페퍼.; 디마레: 눈물나게 매콤한 해산물 스파게티.; 훈제오리스파게티: 살짝 매콤한 크림소스에 스파게티 그리고 오렌지로 마무리; 알리오올리오: 마늘오일과 허브로 맛을낸 스파게티 거기다가 페페론치니몇알 얹어서 살짝 매콤하게~~~~요,; 돈까스: 예전 경양식 돈까스~; 오징어새우필라프: 10,000원; 명란파스타: 11,000원; 매콤한크림해산물: 14,000원"
유풍상회삼겹살전문,서울특별시 마포구 월드컵북로44길 79,37.57764721,126.8934465,돼지고기구이,"급냉삼겹살: 급냉삼겹살 / 국내산 한돈 1등급; 급냉꽃목살: 급냉 꽃목살 / 국내산 한돈 1등급; 차돌삼겹: 미국산 소고기 / 차돌삼겹; 제주생오겹살: 제주산 오겹살 /생으로 나오는 제주오겹살; 돼지껍데기: 벌집초벌 돼지껍데기; 차돌된장찌개: 차돌이 듬뿍 들어간 된장찌개; 스팸김치찌개: 스팸이 듬뿍 들어간 김치찌개; 김치볶음밥: 4,900원; 초밥: 냉삼겹, 차돌삼겹을 올려서 먹는 초밥!"
유황생오리,서울특별시 마포구 신촌로28가길 35,37.55671642,126.951806,한식,"유황생오리로스: 55,000원; 황칠오리: 65,000원; 옻오리: 63,000원; 돼지왕갈비: 15,000원; 삼겹살: 14,000원; 오리탕: 8,000원; 뚝불고기: 9,000원; 갈비탕: 10,000원; 냉면: 8,000원; 두부계란찜: 12,000원"
유희,서울특별시 마포구 마포대로 196,37.55134888,126.9561817,"카페,디저트","에그타르트: 4,500원; 피칸타르트: 4,500원; 휘낭시에: 2,700원; 초코소금휘낭시에: 3,000원; 아몬드크로칸트휘낭시에: 3,000원; 바스크치즈케이크: 5,500원; 몽블랑: 변동; 넛츠캬라멜타르트: 변동; 얼그레이타르트: 변동; 초콜릿레어케이크: 변동; 아메리칸쿠키: 3,700원; 딸기생크림케이크: 변동; 바나나타르트: 변동; 마리아쥬 프레르(웨딩임페리얼): 5,000원; 마리아쥬 프레르(마르코폴로): 5,000원"
육감,서울특별시 마포구 양화로23길 20,37.55928042,126.9252737,"육류,고기요리","국내산 소고기 500g: 프리미엄 소고기; 등심: 18,000원; 육감돈까스: 8,000원; 홍콩우육탕: 8,000원"
육값하네,서울특별시 마포구 양화로6길 94,37.5482607,126.9193433,"육류,고기요리","비빔냉면: 9,000원; 소막창: 20,000원; 돼지막창: 15,000원; 우삼겹: 14,000원; 소갈비살: 20,000원; 안창살: 30,000원; 한우차돌박이: 30,000원; 김치칼국수: 6,000원; 물냉면: 9,000원; 공기밥: 1,000원; 된장찌개: 1,000원; 제주오겹살: 16,000원; 갈매기살: 18,000원; 항정살: 20,000원; 목살: 15,000원"
육기사식당,서울특별시 마포구 대흥로 16,37.54246815,126.9373625,기사식당,"돼지불고기덮밥: 9,000원; 참치회덮밥: 9,000원; 육개장: 9,000원"
육림촌,서울특별시 마포구 백범로20길 12,37.54642868,126.9439491,"육류,고기요리","삼겹살: 냉동이 아닌 생고기 웻에이징과 드라이에이징이 만난 생고기; 목살: 냉동이 아닌 생고기 웻에이징과 드라이에이징이 만난 생고기; 껍데기: 삶지않은 생 껍데기; 소막창구이: 19,000원; 김치찌개: 9,000원; 누룽지: 6,000원; 해물된장찌개: 9,000원; 제육볶음: 10,000원; 해물라면: 6,000원; 후식된장: 7,000원"
육몽,서울특별시 마포구 양화로16길 19,37.55321989,126.9207091,"육류,고기요리","한돈 고기모둠: 한돈 칼삼겹 150g + 한돈 통목살 300g + 한돈 갈매기살150g + 일품 된장찌게; 한돈 갈비삼겹: 16,000원; 한돈 눈꽃목살: 16,000원; 한돈 통갈매기살: 16,000원; 설화 꽃살: 28,000원; 설화 등심: 27,000원; 소갈비살: 19,000원; 벌집 돼지껍데기: 두툼한 살에 칼집 양념을 재어 어느곳보다 맛있는 육몽표 껍데기입니다.; 일품 된장찌개: 겨울엔 향긋한 냉이를 넣고 여름엔 영양부추를 넣은 육몽표 진심으로 만든 된장찌개 입니다.; 치즈 계란찜: 한번 드셔보세요 호불호없이 맛이 좋습니다 :); 계란 김치볶음밥: 시큼한 김치와 돼지기름으로 볶은 육몽표 김치볶음밥입니다.; 차돌박이 라면: 차돌박이가 들어간 얼큰한 라면입니다. 찐한 고기육수에 얼큰한 라면 드셔보세요."
